{"type":"FeatureCollection","features":[{"type":"Feature","properties":{"npri_id":"0000000001","comp_name":"Alberta-Pacific Forest Industries Inc.","faci_name":"Alberta-Pacific Forest Industries Inc.","city":"County of Athabasca","province":"AB"},"geometry":{"type":"Point","coordinates":[-112.861867,54.923116]}},{"type":"Feature","properties":{"npri_id":"0000000004","comp_name":"Tembec","faci_name":"Pine Falls Operations","city":"Pine Falls","province":"MB"},"geometry":{"type":"Point","coordinates":[-96.2267,50.5686]}},{"type":"Feature","properties":{"npri_id":"0000000007","comp_name":"HEXION SPECIALTY CHEMICALS CANADA INC.","faci_name":"Hexion - Laval","city":"Laval","province":"QC"},"geometry":{"type":"Point","coordinates":[-73.7217,45.5797]}},{"type":"Feature","properties":{"npri_id":"0000000009","comp_name":"Borden Chemical Canada, Inc.","faci_name":"Borden Chemical - North Bay","city":"North Bay","province":"ON"},"geometry":{"type":"Point","coordinates":[-79.4412,46.3098]}},{"type":"Feature","properties":{"npri_id":"0000000011","comp_name":"Momentive Specialty Chemicals Canada Inc.","faci_name":"Momentive Specialty Chemicals Canada - Edmonton Facility","city":"Edmonton","province":"AB"},"geometry":{"type":"Point","coordinates":[-113.5886,53.5823]}},{"type":"Feature","properties":{"npri_id":"0000000013","comp_name":"HEXION SPECIALTY CHEMICAL CANADA INC.","faci_name":"Hexion - Vancouver","city":"Vancouver","province":"BC"},"geometry":{"type":"Point","coordinates":[-123.1419,49.2046]}},{"type":"Feature","properties":{"npri_id":"0000000015","comp_name":"Baycoat Ltd.","faci_name":"Baycoat Ltd.","city":"Hamilton","province":"ON"},"geometry":{"type":"Point","coordinates":[-79.7503,43.2428]}},{"type":"Feature","properties":{"npri_id":"0000000018","comp_name":"Novelis Inc.","faci_name":"Usine Saguenay","city":"Jonquière","province":"QC"},"geometry":{"type":"Point","coordinates":[-71.1898,48.4211]}},{"type":"Feature","properties":{"npri_id":"0000000021","comp_name":"Bolton Steel Tube Co. Ltd.","faci_name":"Bolton Plant","city":"Bolton","province":"ON"},"geometry":{"type":"Point","coordinates":[-79.7308,43.8656]}},{"type":"Feature","properties":{"npri_id":"0000000022","comp_name":"Nylene Canada Inc.","faci_name":"Nylene Canada Inc.","city":"Arnprior","province":"ON"},"geometry":{"type":"Point","coordinates":[-76.3372,45.4358]}},{"type":"Feature","properties":{"npri_id":"0000000025","comp_name":"BASF Canada Inc.","faci_name":"Brantford Site","city":"Brantford","province":"ON"},"geometry":{"type":"Point","coordinates":[-80.2464,43.1629]}},{"type":"Feature","properties":{"npri_id":"0000000028","comp_name":"BASF Canada Inc.","faci_name":"CORNWALL SITE","city":"Cornwall","province":"ON"},"geometry":{"type":"Point","coordinates":[-74.7551,45.0189]}},{"type":"Feature","properties":{"npri_id":"0000000031","comp_name":"BASF Canada Inc.","faci_name":"Windsor Site","city":"Windsor","province":"ON"},"geometry":{"type":"Point","coordinates":[-83.0456,42.3111]}},{"type":"Feature","properties":{"npri_id":"0000000034","comp_name":"BASF Canada Inc.","faci_name":"TORONTO SITE","city":"Toronto","province":"ON"},"geometry":{"type":"Point","coordinates":[-79.5972,43.6903]}},{"type":"Feature","properties":{"npri_id":"0000000037","comp_name":"BASF Canada Inc. - Sarnia Site","faci_name":null,"city":"Sarnia","province":"ON"},"geometry":{"type":"Point","coordinates":[-82.414,42.9509]}},{"type":"Feature","properties":{"npri_id":"0000000043","comp_name":"BASF Canada","faci_name":"GEORGETOWN SITE","city":"Georgetown","province":"ON"},"geometry":{"type":"Point","coordinates":[-79.8953,43.6533]}},{"type":"Feature","properties":{"npri_id":"0000000049","comp_name":"BECKWITH-BEMIS","faci_name":"Tissus plastifies","city":"Sherbrooke","province":"QC"},"geometry":{"type":"Point","coordinates":[-71.9428,45.388]}},{"type":"Feature","properties":{"npri_id":"0000000052","comp_name":"BÉTONEL","faci_name":"Usine de Terrebonne","city":"Terrebonne","province":"QC"},"geometry":{"type":"Point","coordinates":[-73.6942,45.7406]}},{"type":"Feature","properties":{"npri_id":"0000000054","comp_name":"Xstrata Canada Corporation","faci_name":"Brunswick Mine","city":"Bathurst","province":"NB"},"geometry":{"type":"Point","coordinates":[-65.8897,47.4717]}},{"type":"Feature","properties":{"npri_id":"0000000057","comp_name":"Bombardier Inc.","faci_name":"USINE DE LA POCATIÈRE","city":"La Pocatière","province":"QC"},"geometry":{"type":"Point","coordinates":[-70.0509,47.3594]}},{"type":"Feature","properties":{"npri_id":"0000000061","comp_name":"BRIDPORT INDUSTRIES LIMITED","faci_name":"BRIDPORT INDUSTRIES LIMITED","city":"DARTMOUTH","province":"NS"},"geometry":{"type":"Point","coordinates":[-63.56803,44.66378]}},{"type":"Feature","properties":{"npri_id":"0000000064","comp_name":"B&W Heat Treating Canada ULC","faci_name":"Plant No. 1","city":"Kitchener","province":"ON"},"geometry":{"type":"Point","coordinates":[-80.4608,43.4036]}},{"type":"Feature","properties":{"npri_id":"0000000065","comp_name":"Battenfeld Grease (Canada) Ltd.","faci_name":"BATTENFELD GREASE (CANADA) Ltd","city":"Toronto","province":"ON"},"geometry":{"type":"Point","coordinates":[-79.5231,43.6297]}},{"type":"Feature","properties":{"npri_id":"0000000070","comp_name":"TI Automotive Canada Inc.","faci_name":"Bramalea Plant","city":"Bramalea","province":"ON"},"geometry":{"type":"Point","coordinates":[-79.7039,43.7028]}},{"type":"Feature","properties":{"npri_id":"0000000078","comp_name":"GE Betz Canada","faci_name":"N/A","city":"Pointe-Claire","province":"QC"},"geometry":{"type":"Point","coordinates":[-73.8278,45.4542]}},{"type":"Feature","properties":{"npri_id":"0000000079","comp_name":"GE Water & Process Technologies Canada","faci_name":"GE Water & Process Technologies Canada - EDMONTON","city":"Edmonton","province":"AB"},"geometry":{"type":"Point","coordinates":[-113.5747,53.5894]}},{"type":"Feature","properties":{"npri_id":"0000000087","comp_name":"Accuflex Industrial Hose Ltd.","faci_name":null,"city":"Guelph","province":"ON"},"geometry":{"type":"Point","coordinates":[-80.3186,43.5381]}},{"type":"Feature","properties":{"npri_id":"0000000090","comp_name":"Samuel Strapping Systems","faci_name":"Scarborough Location","city":"Scarborough","province":"ON"},"geometry":{"type":"Point","coordinates":[-79.2832,43.7172]}},{"type":"Feature","properties":{"npri_id":"0000000092","comp_name":"CCL Container Canada","faci_name":"CCL Container - Aerosol Division Penetanguishene","city":"Penetanguishene","province":"ON"},"geometry":{"type":"Point","coordinates":[-79.9147,44.7775]}},{"type":"Feature","properties":{"npri_id":"0000000096","comp_name":"AFGD GLASS","faci_name":"Fabricated Products Division","city":"Concord","province":"ON"},"geometry":{"type":"Point","coordinates":[-79.5029,43.7941]}},{"type":"Feature","properties":{"npri_id":"0000000099","comp_name":"Les Mines Agnico-Eagle","faci_name":"Division Laronde","city":"Rouyn-Noranda","province":"QC"},"geometry":{"type":"Point","coordinates":[-78.3958,48.2375]}},{"type":"Feature","properties":{"npri_id":"0000000100","comp_name":"LES PRODUITS AGROB","faci_name":"LES PRODUITS AGROB - MERCIER","city":"Mercier","province":"QC"},"geometry":{"type":"Point","coordinates":[-73.7522,45.3004]}},{"type":"Feature","properties":{"npri_id":"0000000105","comp_name":"Aldex Chemical Co. Ltd.","faci_name":"ALDEX CHEMICAL","city":"Granby","province":"QC"},"geometry":{"type":"Point","coordinates":[-72.7547,45.3907]}},{"type":"Feature","properties":{"npri_id":"0000000106","comp_name":"Devon Canada Corporation","faci_name":"Dunvegan Sour Gas Plant","city":"Fairview","province":"AB"},"geometry":{"type":"Point","coordinates":[-118.5336,55.9967]}},{"type":"Feature","properties":{"npri_id":"0000000108","comp_name":"NEWMONT CANADA LTD","faci_name":"HOLLOWAY MINE (SHAFT #3)","city":"MATHESON","province":"ON"},"geometry":{"type":"Point","coordinates":[-81.1218,48.5212]}},{"type":"Feature","properties":{"npri_id":"0000000109","comp_name":"Alumabrite Anodizing","faci_name":"ALUMABRITE ANODIZING","city":"Hamilton","province":"ON"},"geometry":{"type":"Point","coordinates":[-79.7439,43.2344]}},{"type":"Feature","properties":{"npri_id":"0000000110","comp_name":"Almico Products Ltd.","faci_name":"Almico Products Ltd.","city":"Smith Falls","province":"ON"},"geometry":{"type":"Point","coordinates":[-76.0172,44.8847]}},{"type":"Feature","properties":{"npri_id":"0000000111","comp_name":"Apotex Inc.","faci_name":"Apotex Inc. 150 Signet Drive","city":"Toronto","province":"ON"},"geometry":{"type":"Point","coordinates":[-79.5408,43.7639]}},{"type":"Feature","properties":{"npri_id":"0000000112","comp_name":"Achitectural Onament Inc.","faci_name":null,"city":"Cncord","province":"ON"},"geometry":{"type":"Point","coordinates":[-79.4898,43.8112]}},{"type":"Feature","properties":{"npri_id":"0000000113","comp_name":"A.R.CLARKE LTD.","faci_name":null,"city":"TORONTO","province":"ON"},"geometry":{"type":"Point","coordinates":[-79.3373,43.6587]}},{"type":"Feature","properties":{"npri_id":"0000000116","comp_name":"Progress Plastiques Cie.","faci_name":"usine rue Canadien","city":"Drummondville","province":"QC"},"geometry":{"type":"Point","coordinates":[-72.5458,45.8795]}},{"type":"Feature","properties":{"npri_id":"0000000117","comp_name":"ArvinMeritor - Ride Control","faci_name":"ArvinMeritor - Ride Control","city":"Toronto","province":"ON"},"geometry":{"type":"Point","coordinates":[-79.5383,43.595]}},{"type":"Feature","properties":{"npri_id":"0000000120","comp_name":"Ashland Canada Corp.","faci_name":"ASHLAND CANADA - MISSISSAUGA","city":"Mississauga","province":"ON"},"geometry":{"type":"Point","coordinates":[-79.6446,43.4988]}},{"type":"Feature","properties":{"npri_id":"0000000123","comp_name":"Associated Tube Industries","faci_name":"A.T.I","city":"Markham","province":"ON"},"geometry":{"type":"Point","coordinates":[-79.3514,43.8236]}},{"type":"Feature","properties":{"npri_id":"0000000125","comp_name":"Atlantic Packaging Products Ltd.","faci_name":"Whitby","city":"Whitby","province":"ON"},"geometry":{"type":"Point","coordinates":[-78.9017,43.8606]}},{"type":"Feature","properties":{"npri_id":"0000000126","comp_name":"Celanese EVA Performance Polymers Inc.","faci_name":"Edmonton Site","city":"Edmonton","province":"AB"},"geometry":{"type":"Point","coordinates":[-113.4092,53.5397]}},{"type":"Feature","properties":{"npri_id":"0000000127","comp_name":"Parmalat Canada","faci_name":"New Dundee","city":"New Dundee","province":"ON"},"geometry":{"type":"Point","coordinates":[-80.5347,43.3507]}},{"type":"Feature","properties":{"npri_id":"0000000135","comp_name":"Hood Packaging Corporation","faci_name":"Burlington Plastics Division","city":"Burlington","province":"ON"},"geometry":{"type":"Point","coordinates":[-79.8008,43.3475]}},{"type":"Feature","properties":{"npri_id":"0000000136","comp_name":"Borgwarner Canada Inc.","faci_name":"N/A","city":"Simcoe","province":"ON"},"geometry":{"type":"Point","coordinates":[-80.3197,42.8486]}},{"type":"Feature","properties":{"npri_id":"0000000139","comp_name":"The Butcher Engineering Enterprises Ltd.","faci_name":"Orenda","city":"Brampton","province":"ON"},"geometry":{"type":"Point","coordinates":[-79.7328,43.6956]}},{"type":"Feature","properties":{"npri_id":"0000000144","comp_name":"CAE Inc.","faci_name":"Usine de Saint-Laurent","city":"Saint-Laurent","province":"QC"},"geometry":{"type":"Point","coordinates":[-73.7028,45.4769]}},{"type":"Feature","properties":{"npri_id":"0000000147","comp_name":"Cambior","faci_name":"Usine Yvan-Vezina","city":"Destor","province":"QC"},"geometry":{"type":"Point","coordinates":[-78.95,48.4583]}},{"type":"Feature","properties":{"npri_id":"0000000151","comp_name":"Canada Alloy Castings","faci_name":"CANADA ALLOY CASTINGS","city":"Kitchener","province":"ON"},"geometry":{"type":"Point","coordinates":[-80.4475,43.4005]}},{"type":"Feature","properties":{"npri_id":"0000000152","comp_name":"Carpenter Canada Co - Calgary","faci_name":"Calgary Division","city":"Calgary","province":"AB"},"geometry":{"type":"Point","coordinates":[-113.9808,51.0011]}},{"type":"Feature","properties":{"npri_id":"0000000156","comp_name":"Canada Colors & Chemicals Ltd.","faci_name":"MONTREAL FACILITY","city":"Saint-Laurent","province":"QC"},"geometry":{"type":"Point","coordinates":[-73.7615,45.4939]}},{"type":"Feature","properties":{"npri_id":"0000000158","comp_name":"Canada Metal (Est) (2010) Ltée","faci_name":"Usine St-Léonard","city":"Saint-Léonard","province":"QC"},"geometry":{"type":"Point","coordinates":[-73.5841,45.5973]}},{"type":"Feature","properties":{"npri_id":"0000000159","comp_name":"Bunge Canada Holdings I ULC","faci_name":"BUNGE CANADA - ALTONA PLANT","city":"Altona","province":"MB"},"geometry":{"type":"Point","coordinates":[-97.566,49.1108]}},{"type":"Feature","properties":{"npri_id":"0000000161","comp_name":"Bunge Canada Holdings I ULC","faci_name":"Bunge Canada - Hamilton Plant","city":"Hamilton","province":"ON"},"geometry":{"type":"Point","coordinates":[-79.8506,43.2683]}},{"type":"Feature","properties":{"npri_id":"0000000163","comp_name":"Bunge Canada Holdings I ULC","faci_name":"BUNGE CANADA - NIPAWIN PLANT","city":"Nipawin","province":"SK"},"geometry":{"type":"Point","coordinates":[-104.027,53.3252]}},{"type":"Feature","properties":{"npri_id":"0000000165","comp_name":"Bunge Canada Holdings I ULC","faci_name":"BUNGE CANADA - MONTRÉAL PLANT","city":"Montréal","province":"QC"},"geometry":{"type":"Point","coordinates":[-73.5516,45.4889]}},{"type":"Feature","properties":{"npri_id":"0000000167","comp_name":"Bunge Canada","faci_name":"BUNGE CANADA - TORONTO PLANT","city":"Toronto","province":"ON"},"geometry":{"type":"Point","coordinates":[-79.4681,43.6728]}},{"type":"Feature","properties":{"npri_id":"0000000169","comp_name":"Bunge Canada Holdings I ULC","faci_name":"BUNGE CANADA - WAINWRIGHT PLANT","city":"Wainwright","province":"AB"},"geometry":{"type":"Point","coordinates":[-110.8592,52.8292]}},{"type":"Feature","properties":{"npri_id":"0000000171","comp_name":"CARADON CONSUMER PRODUCTS","faci_name":"CARADON CONSUMER PRODUCTS","city":"MISSISSAUGA","province":"ON"},"geometry":{"type":"Point","coordinates":[-79.6583,43.6628]}},{"type":"Feature","properties":{"npri_id":"0000000174","comp_name":"Cascades Moulded Pulp - Brantford","faci_name":"N/A","city":"Brantford","province":"ON"},"geometry":{"type":"Point","coordinates":[-80.2556,43.1483]}},{"type":"Feature","properties":{"npri_id":"0000000177","comp_name":"Coveright Surfaces Canada Inc.","faci_name":"COVERIGHT SURFACES CANADA","city":"Cobourg","province":"ON"},"geometry":{"type":"Point","coordinates":[-78.1197,43.9578]}},{"type":"Feature","properties":{"npri_id":"0000000178","comp_name":"CASH MOULD & CASTINGS","faci_name":"CASH MOULD & CASTINGS","city":"LONDON","province":"ON"},"geometry":{"type":"Point","coordinates":[-81.2449,42.97912]}},{"type":"Feature","properties":{"npri_id":"0000000179","comp_name":"KIK Operating Partnership","faci_name":"Plant #1","city":"Etobicoke","province":"ON"},"geometry":{"type":"Point","coordinates":[-79.5681,43.7083]}},{"type":"Feature","properties":{"npri_id":"0000000181","comp_name":"KIK Operating Partnership","faci_name":"Plant #2","city":"Etobicoke","province":"ON"},"geometry":{"type":"Point","coordinates":[-79.5669,43.7111]}},{"type":"Feature","properties":{"npri_id":"0000000183","comp_name":"CDM PAPIERS DÉCORS INC","faci_name":"CDM PAPIERS DÉCORS","city":"DRUMMONDVILLE","province":"QC"},"geometry":{"type":"Point","coordinates":[-72.5442,45.8756]}},{"type":"Feature","properties":{"npri_id":"0000000185","comp_name":"A-Z Sponge & Foam Products Ltd.","faci_name":"A-Z SPONGE & FOAM PRODUCTS LTD.","city":"Delta","province":"BC"},"geometry":{"type":"Point","coordinates":[-122.9321,49.1738]}},{"type":"Feature","properties":{"npri_id":"0000000188","comp_name":"Fonderie générale du Canada","faci_name":"Fonderie Générale du Canada, XStrata Zinc Canada","city":"Lachine","province":"QC"},"geometry":{"type":"Point","coordinates":[-73.6744,45.4483]}},{"type":"Feature","properties":{"npri_id":"0000000191","comp_name":"Centerline (Windsor) Ltd.","faci_name":"Electrodes Division","city":"Windsor","province":"ON"},"geometry":{"type":"Point","coordinates":[-83.0997,42.2522]}},{"type":"Feature","properties":{"npri_id":"0000000192","comp_name":"Champion Technologies, Ltd","faci_name":"Calgary Plant","city":"Calgary","province":"AB"},"geometry":{"type":"Point","coordinates":[-113.9857,50.9942]}},{"type":"Feature","properties":{"npri_id":"0000000193","comp_name":"Omega Coatings Ltd.","faci_name":"Omega Coatings Ltd.","city":"Delta","province":"BC"},"geometry":{"type":"Point","coordinates":[-122.931,49.1774]}},{"type":"Feature","properties":{"npri_id":"0000000194","comp_name":"Chesebrough-Pond's Canada","faci_name":"Chesebrough-Pond's Canada","city":"Markham","province":"ON"},"geometry":{"type":"Point","coordinates":[-79.2792,43.8792]}},{"type":"Feature","properties":{"npri_id":"0000000196","comp_name":"CV MATERIALS (CANADA) LTD.","faci_name":null,"city":"Ingersoll","province":"ON"},"geometry":{"type":"Point","coordinates":[-80.8807,43.0442]}},{"type":"Feature","properties":{"npri_id":"0000000199","comp_name":"Chrysler Canada Inc.","faci_name":"Etobicoke Casting Plant","city":"Toronto","province":"ON"},"geometry":{"type":"Point","coordinates":[-79.5406,43.5958]}},{"type":"Feature","properties":{"npri_id":"0000000201","comp_name":"City of Peterborough","faci_name":"PTBO WASTE WATER TREATMENT PLANT","city":"Peterborough","province":"ON"},"geometry":{"type":"Point","coordinates":[-78.3165,44.2754]}},{"type":"Feature","properties":{"npri_id":"0000000203","comp_name":"City of Thunder Bay","faci_name":"Bare Point Water Treatment Plant","city":"Thunder Bay","province":"ON"},"geometry":{"type":"Point","coordinates":[-89.1514,48.4758]}},{"type":"Feature","properties":{"npri_id":"0000000204","comp_name":"City of Thunder Bay","faci_name":"Loch Lomond Water Treatment Plant","city":"Thunder Bay","province":"ON"},"geometry":{"type":"Point","coordinates":[-89.2692,48.3308]}},{"type":"Feature","properties":{"npri_id":"0000000205","comp_name":"City of Thunder Bay","faci_name":"Water Pollution Control Plant","city":"Thunder Bay","province":"ON"},"geometry":{"type":"Point","coordinates":[-89.225,48.3989]}},{"type":"Feature","properties":{"npri_id":"0000000207","comp_name":"Colortech Inc.","faci_name":"COLORTECH INC. BRAMPTON","city":"Brampton","province":"ON"},"geometry":{"type":"Point","coordinates":[-79.7044,43.6972]}},{"type":"Feature","properties":{"npri_id":"0000000209","comp_name":"Greenfield Ethanol Inc.","faci_name":"Tiverton","city":"Tiverton","province":"ON"},"geometry":{"type":"Point","coordinates":[-81.5657,44.3193]}},{"type":"Feature","properties":{"npri_id":"0000000210","comp_name":"Greenfield Ethanol Inc.","faci_name":"Brampton","city":"Brampton","province":"ON"},"geometry":{"type":"Point","coordinates":[-79.6931,43.7375]}},{"type":"Feature","properties":{"npri_id":"0000000211","comp_name":"Ville de Québec","faci_name":"Incinérateur","city":"Québec","province":"QC"},"geometry":{"type":"Point","coordinates":[-71.224,46.8318]}},{"type":"Feature","properties":{"npri_id":"0000000214","comp_name":"Vibac Canada Inc.","faci_name":"Vibac du Canada","city":"Montréal","province":"QC"},"geometry":{"type":"Point","coordinates":[-73.5172,45.6483]}},{"type":"Feature","properties":{"npri_id":"0000000215","comp_name":"Court Galvanizing Ltd","faci_name":"Guelph Plant","city":"Guelph","province":"ON"},"geometry":{"type":"Point","coordinates":[-80.284,43.5522]}},{"type":"Feature","properties":{"npri_id":"0000000216","comp_name":"Triple M Metal LP","faci_name":"Scarborough","city":"Toronto","province":"ON"},"geometry":{"type":"Point","coordinates":[-79.2781,43.7214]}},{"type":"Feature","properties":{"npri_id":"0000000222","comp_name":"Cytec Canada Inc.","faci_name":"Welland Plant","city":"Niagara Falls","province":"ON"},"geometry":{"type":"Point","coordinates":[-79.1583,43.0472]}},{"type":"Feature","properties":{"npri_id":"0000000223","comp_name":"Daishowa-Marubeni International Ltd-Peace River Pulp","faci_name":"Peace River Pulp Division","city":"MD of Northern Lights","province":"AB"},"geometry":{"type":"Point","coordinates":[-117.1756,56.3772]}},{"type":"Feature","properties":{"npri_id":"0000000225","comp_name":"Dajcor Aluminum Ltd.","faci_name":"Dajcor Aluminum Ltd.","city":"Chatham","province":"ON"},"geometry":{"type":"Point","coordinates":[-82.2136,42.3903]}},{"type":"Feature","properties":{"npri_id":"0000000227","comp_name":"Schott Gemtron Corp.","faci_name":"SCHOTT Gemtron (Canada) Corporation","city":"Midland","province":"ON"},"geometry":{"type":"Point","coordinates":[-79.851,44.734]}},{"type":"Feature","properties":{"npri_id":"0000000231","comp_name":"Delhi Industries Inc","faci_name":"James St.","city":"Delhi","province":"ON"},"geometry":{"type":"Point","coordinates":[-80.4897,42.8475]}},{"type":"Feature","properties":{"npri_id":"0000000238","comp_name":"DIMPLEX NORTH AMERICA LTD.","faci_name":null,"city":"CAMBRIDGE","province":"ON"},"geometry":{"type":"Point","coordinates":[-80.329,43.3944]}},{"type":"Feature","properties":{"npri_id":"0000000239","comp_name":"Cascades Canada ULC.","faci_name":"Norampac Trenton, a Division of Cascades Canada ULC.","city":"Trenton","province":"ON"},"geometry":{"type":"Point","coordinates":[-77.5878,44.1114]}},{"type":"Feature","properties":{"npri_id":"0000000241","comp_name":"Dona Lake Gold Mine Ltd.","faci_name":"Dona Lake Gold Mine Ltd.","city":"NA","province":"ON"},"geometry":{"type":"Point","coordinates":[-90.1028,51.4153]}},{"type":"Feature","properties":{"npri_id":"0000000245","comp_name":"Pactiv Canada Inc.","faci_name":"Brampton Plant","city":"Brampton","province":"ON"},"geometry":{"type":"Point","coordinates":[-79.7194,43.685]}},{"type":"Feature","properties":{"npri_id":"0000000247","comp_name":"Aya Kitchens & Baths Ltd.","faci_name":"AyA Kitchens & Baths Manufacturing Facility","city":"Mississauga","province":"ON"},"geometry":{"type":"Point","coordinates":[-79.5756,43.605]}},{"type":"Feature","properties":{"npri_id":"0000000249","comp_name":"ASHLAND CANADA","faci_name":"Drew Canada","city":"Ajax","province":"ON"},"geometry":{"type":"Point","coordinates":[-79.0279,43.8347]}},{"type":"Feature","properties":{"npri_id":"0000000250","comp_name":"Evonik Degussa Canada Inc.","faci_name":"Gibbons Site","city":"Gibbons","province":"AB"},"geometry":{"type":"Point","coordinates":[-113.1089,53.8331]}},{"type":"Feature","properties":{"npri_id":"0000000252","comp_name":"Dural, Division of Multibond Inc.","faci_name":"Dural Plant div Multibond.","city":"Dorval","province":"QC"},"geometry":{"type":"Point","coordinates":[-73.7363,45.4501]}},{"type":"Feature","properties":{"npri_id":"0000000253","comp_name":"Duro-Kote ltd","faci_name":"Duro-Kote ltée","city":"Laval","province":"QC"},"geometry":{"type":"Point","coordinates":[-73.7533,45.5842]}},{"type":"Feature","properties":{"npri_id":"0000000254","comp_name":"Duro-Lak Inc.","faci_name":"Duro-Lak inc","city":"Laval","province":"QC"},"geometry":{"type":"Point","coordinates":[-73.7518,45.5849]}},{"type":"Feature","properties":{"npri_id":"0000000255","comp_name":"OMG Belleville Ltd.","faci_name":"OMG BELLEVILLE LIMITED","city":"Belleville","province":"ON"},"geometry":{"type":"Point","coordinates":[-77.3692,44.1806]}},{"type":"Feature","properties":{"npri_id":"0000000256","comp_name":"DUSTBANE PRODUCTS","faci_name":"DUSTBANE PRODUCTS LTD - CHEMICAL DIVISION","city":"Ottawa","province":"ON"},"geometry":{"type":"Point","coordinates":[-75.6503,45.4179]}},{"type":"Feature","properties":{"npri_id":"0000000257","comp_name":"Lavo Inc.","faci_name":"Lavo Inc.","city":"Montréal","province":"QC"},"geometry":{"type":"Point","coordinates":[-73.5398,45.6572]}},{"type":"Feature","properties":{"npri_id":"0000000259","comp_name":"Dutch Products Inc.","faci_name":null,"city":"Weston","province":"ON"},"geometry":{"type":"Point","coordinates":[-79.5237,43.7195]}},{"type":"Feature","properties":{"npri_id":"0000000264","comp_name":"Ecolab Co.","faci_name":"Mississauga Plant","city":"Mississauga","province":"ON"},"geometry":{"type":"Point","coordinates":[-79.6344,43.6285]}},{"type":"Feature","properties":{"npri_id":"0000000267","comp_name":"Capital Power Generation Services Inc.","faci_name":"Genesee Thermal Generating Station","city":"Warburg","province":"AB"},"geometry":{"type":"Point","coordinates":[-114.305,53.344]}},{"type":"Feature","properties":{"npri_id":"0000000269","comp_name":"EPCOR GENERATION","faci_name":"Clover Bar Thermal Generating Station","city":"Edmonton","province":"AB"},"geometry":{"type":"Point","coordinates":[-113.363,53.5873]}},{"type":"Feature","properties":{"npri_id":"0000000271","comp_name":"EMBALLAGES SMURFIT-STONE CANADA","faci_name":"USINE PONTIAC","city":"Portage-du-Fort","province":"QC"},"geometry":{"type":"Point","coordinates":[-76.6625,45.5917]}},{"type":"Feature","properties":{"npri_id":"0000000274","comp_name":"Energetic Metals Incorporated","faci_name":null,"city":"Stevensville (Fort Erie)","province":"ON"},"geometry":{"type":"Point","coordinates":[-79.047,42.9484]}},{"type":"Feature","properties":{"npri_id":"0000000276","comp_name":"DJ Galvanizing Corp.","faci_name":"DJ GALVANIZING","city":"Windsor","province":"ON"},"geometry":{"type":"Point","coordinates":[-83.1002,42.2605]}},{"type":"Feature","properties":{"npri_id":"0000000279","comp_name":"Domtar Inc.","faci_name":"Domtar Inc, Usine de Lebel-sur-Quévillon","city":"Lebel-sur-Quévillon","province":"QC"},"geometry":{"type":"Point","coordinates":[-76.9538,49.0254]}},{"type":"Feature","properties":{"npri_id":"0000000280","comp_name":"Dow Chemical Canada ULC","faci_name":"Western Canada Operations","city":"Fort Saskatchewan","province":"AB"},"geometry":{"type":"Point","coordinates":[-113.175,53.7332]}},{"type":"Feature","properties":{"npri_id":"0000000281","comp_name":"Dow Chemical Canada ULC","faci_name":"Varennes Facility","city":"Varennes","province":"QC"},"geometry":{"type":"Point","coordinates":[-73.4033,45.7317]}},{"type":"Feature","properties":{"npri_id":"0000000282","comp_name":"Dow Chemical Canada ULC","faci_name":"Dow Chemical Canada ULC - Weston","city":"Weston","province":"ON"},"geometry":{"type":"Point","coordinates":[-79.5297,43.7447]}},{"type":"Feature","properties":{"npri_id":"0000000284","comp_name":"Duochem Inc.","faci_name":"DUOCHEM - BOUCHERVILLE","city":"Boucherville","province":"QC"},"geometry":{"type":"Point","coordinates":[-73.4406,45.5641]}},{"type":"Feature","properties":{"npri_id":"0000000286","comp_name":"DuPont Canada Company","faci_name":"Ajax Performance Coatings Division","city":"Ajax","province":"ON"},"geometry":{"type":"Point","coordinates":[-79.0347,43.8476]}},{"type":"Feature","properties":{"npri_id":"0000000299","comp_name":"Akzo Nobel","faci_name":"Eka Chemicals Canada Inc.","city":"Toronto","province":"ON"},"geometry":{"type":"Point","coordinates":[-79.359,43.7079]}},{"type":"Feature","properties":{"npri_id":"0000000302","comp_name":"EKA Chemicals Canada Inc.","faci_name":"Usine de Magog","city":"Magog","province":"QC"},"geometry":{"type":"Point","coordinates":[-72.1128,45.2751]}},{"type":"Feature","properties":{"npri_id":"0000000305","comp_name":"CHEMTURA CANADA","faci_name":"ANDEROL OAKVILLE","city":"Oakville","province":"ON"},"geometry":{"type":"Point","coordinates":[-79.7212,43.4203]}},{"type":"Feature","properties":{"npri_id":"0000000308","comp_name":"Kemira Water Solutions Canada Inc.","faci_name":"Varennes","city":"Varennes","province":"QC"},"geometry":{"type":"Point","coordinates":[-73.4228,45.711]}},{"type":"Feature","properties":{"npri_id":"0000000311","comp_name":"Endura Manufacturing Co. Ltd.","faci_name":"Endura Manufacturing","city":"Edmonton","province":"AB"},"geometry":{"type":"Point","coordinates":[-113.5764,53.5799]}},{"type":"Feature","properties":{"npri_id":"0000000312","comp_name":"Equity Silver Mines Ltd.","faci_name":null,"city":"Houston","province":"BC"},"geometry":{"type":"Point","coordinates":[-126.6517,54.389]}},{"type":"Feature","properties":{"npri_id":"0000000315","comp_name":"ESCO Limited","faci_name":"ESCO Limited","city":"Port Hope","province":"ON"},"geometry":{"type":"Point","coordinates":[-78.2847,43.9483]}},{"type":"Feature","properties":{"npri_id":"0000000316","comp_name":"ENTHONE-OMI (CANADA) INC","faci_name":null,"city":"CONCORD","province":"ON"},"geometry":{"type":"Point","coordinates":[-79.5279,43.777]}},{"type":"Feature","properties":{"npri_id":"0000000319","comp_name":"Dyno Nobel Canada Inc.","faci_name":"North Bay","city":"North Bay","province":"ON"},"geometry":{"type":"Point","coordinates":[-79.3778,46.2667]}},{"type":"Feature","properties":{"npri_id":"0000000321","comp_name":"EXACT PRINTING PLATE LIMITED","faci_name":null,"city":"SCARBOROUGH","province":"ON"},"geometry":{"type":"Point","coordinates":[-79.2698,43.7632]}},{"type":"Feature","properties":{"npri_id":"0000000322","comp_name":"General Dynamics OTS- Canada Valleyfield Inc.","faci_name":"General Dynamic OTS-Canada Valleyfield Inc.","city":"Salaberry-de-Valleyfield","province":"QC"},"geometry":{"type":"Point","coordinates":[-74.0717,45.2867]}},{"type":"Feature","properties":{"npri_id":"0000000326","comp_name":"FUJI HUNT PHOTOGRAPHIC CHEMICALS, LTD.","faci_name":"FUJI HUNT PHOTOGRAPHIC CHEMICALS, LTD.","city":"MISSISSAUGA","province":"ON"},"geometry":{"type":"Point","coordinates":[-79.6606,43.7125]}},{"type":"Feature","properties":{"npri_id":"0000000327","comp_name":"Irving Tissue","faci_name":"Irving Tissue","city":"Toronto","province":"ON"},"geometry":{"type":"Point","coordinates":[-79.5059,43.6944]}},{"type":"Feature","properties":{"npri_id":"0000000330","comp_name":"FEROX Inc.","faci_name":"Usine d'Anjou","city":"Anjou","province":"QC"},"geometry":{"type":"Point","coordinates":[-73.5678,45.6118]}},{"type":"Feature","properties":{"npri_id":"0000000333","comp_name":"Catalyst Paper","faci_name":"Elk falls","city":"Campbell River","province":"BC"},"geometry":{"type":"Point","coordinates":[-125.2833,50.0738]}},{"type":"Feature","properties":{"npri_id":"0000000341","comp_name":"Bacardi Canada Inc.","faci_name":"1000 Steeles Ave. E.","city":"Brampton","province":"ON"},"geometry":{"type":"Point","coordinates":[-79.7093,43.6879]}},{"type":"Feature","properties":{"npri_id":"0000000344","comp_name":"General Chemical Performance Products","faci_name":"General Chemical - Thorold","city":"Thorold","province":"ON"},"geometry":{"type":"Point","coordinates":[-79.2092,43.1101]}},{"type":"Feature","properties":{"npri_id":"0000000351","comp_name":"Henniges Automotive Canada Inc.","faci_name":"Henniges Automotive Canada - Welland","city":"Welland","province":"ON"},"geometry":{"type":"Point","coordinates":[-79.2389,42.9977]}},{"type":"Feature","properties":{"npri_id":"0000000354","comp_name":"Gennum Corporation","faci_name":"Landmark Building","city":"Burlington","province":"ON"},"geometry":{"type":"Point","coordinates":[-79.7987,43.367]}},{"type":"Feature","properties":{"npri_id":"0000000355","comp_name":"OXY VINYLS CANADA","faci_name":"Scotford Plant","city":"Fort Saskatchewan","province":"AB"},"geometry":{"type":"Point","coordinates":[-113.0886,53.776]}},{"type":"Feature","properties":{"npri_id":"0000000358","comp_name":"Glopak, Division of","faci_name":"USINE","city":"Montréal","province":"QC"},"geometry":{"type":"Point","coordinates":[-73.62,45.5883]}},{"type":"Feature","properties":{"npri_id":"0000000359","comp_name":"Goodfellow Inc.","faci_name":"St. Andre","city":"St-Andre d'Argenteuil","province":"QC"},"geometry":{"type":"Point","coordinates":[-74.3361,45.5653]}},{"type":"Feature","properties":{"npri_id":"0000000360","comp_name":"Goodfellow Inc.","faci_name":"Goodfellow, DELSON","city":"Delson","province":"QC"},"geometry":{"type":"Point","coordinates":[-73.5366,45.3651]}},{"type":"Feature","properties":{"npri_id":"0000000361","comp_name":"Graham","faci_name":null,"city":"Inglewood","province":"ON"},"geometry":{"type":"Point","coordinates":[-79.9261,43.7948]}},{"type":"Feature","properties":{"npri_id":"0000000362","comp_name":"Greater Vancouver Sewerage and Drainage District","faci_name":"Metro Vancouver Waste-to-Energy Facility","city":"Burnaby","province":"BC"},"geometry":{"type":"Point","coordinates":[-122.9785,49.1866]}},{"type":"Feature","properties":{"npri_id":"0000000363","comp_name":"Capital Regional District Water Dept","faci_name":"Japan Gulch Chloramination Plant","city":"Victoria","province":"BC"},"geometry":{"type":"Point","coordinates":[-123.5735,48.4628]}},{"type":"Feature","properties":{"npri_id":"0000000365","comp_name":"Humpback Chloramination Plant","faci_name":null,"city":"Langford","province":"BC"},"geometry":{"type":"Point","coordinates":[-123.5846,48.4664]}},{"type":"Feature","properties":{"npri_id":"0000000367","comp_name":"Capital Regional District Water Dept.","faci_name":"Charters Creek Chloramination Plant","city":"Sooke","province":"BC"},"geometry":{"type":"Point","coordinates":[-123.5514,48.4592]}},{"type":"Feature","properties":{"npri_id":"0000000369","comp_name":"Sonoco Flexible Packaging Canada Corp.","faci_name":"Sonoco Flexible Packaging Winnipeg","city":"Winnipeg","province":"MB"},"geometry":{"type":"Point","coordinates":[-97.1758,49.8394]}},{"type":"Feature","properties":{"npri_id":"0000000371","comp_name":"Flexstar Packaging Inc.","faci_name":"FLEXSTAR Packaging Richmond Operations","city":"Richmond","province":"BC"},"geometry":{"type":"Point","coordinates":[-123.0772,49.2004]}},{"type":"Feature","properties":{"npri_id":"0000000373","comp_name":"Deane & Cie Inc.","faci_name":"Deane et Compagnie","city":"Pointe-Claire","province":"QC"},"geometry":{"type":"Point","coordinates":[-73.8113,45.4749]}},{"type":"Feature","properties":{"npri_id":"0000000374","comp_name":"Halltech Inc.","faci_name":"HALLTECH INC.","city":"Scarborough","province":"ON"},"geometry":{"type":"Point","coordinates":[-79.1697,43.7644]}},{"type":"Feature","properties":{"npri_id":"0000000375","comp_name":"Harbour Indusries (Canada) Ltd.","faci_name":"Harbour industrie Canada","city":"Farnham","province":"QC"},"geometry":{"type":"Point","coordinates":[-72.9617,45.2928]}},{"type":"Feature","properties":{"npri_id":"0000000376","comp_name":"Dana Canada Inc.","faci_name":"Light Vehicle Driveline (Thorold Machining Plant)","city":"Thorold","province":"ON"},"geometry":{"type":"Point","coordinates":[-79.2061,43.0922]}},{"type":"Feature","properties":{"npri_id":"0000000377","comp_name":"H. B. FULLER CANADA INC.","faci_name":"H. B. FULLER CANADA INC.","city":"BOUCHERVILLE","province":"QC"},"geometry":{"type":"Point","coordinates":[-73.4556,45.5722]}},{"type":"Feature","properties":{"npri_id":"0000000380","comp_name":"Filamat Composites Inc.","faci_name":"Rangeview Road Facility","city":"Mississauga","province":"ON"},"geometry":{"type":"Point","coordinates":[-79.5592,43.5731]}},{"type":"Feature","properties":{"npri_id":"0000000383","comp_name":"Helmitin Inc.","faci_name":"Toronto Plant","city":"Toronto","province":"ON"},"geometry":{"type":"Point","coordinates":[-79.5419,43.6253]}},{"type":"Feature","properties":{"npri_id":"0000000384","comp_name":"Emery Oleochemicals Canada Ltd.","faci_name":"Toronto Plant","city":"Toronto","province":"ON"},"geometry":{"type":"Point","coordinates":[-79.52,43.605]}},{"type":"Feature","properties":{"npri_id":"0000000389","comp_name":"Heritage Silversmiths Inc.","faci_name":null,"city":"Perth","province":"ON"},"geometry":{"type":"Point","coordinates":[-76.2444,44.8876]}},{"type":"Feature","properties":{"npri_id":"0000000390","comp_name":"Heroux-Devtek Inc.","faci_name":"Division Trains d'atterrissage, Longueuil","city":"Longueuil","province":"QC"},"geometry":{"type":"Point","coordinates":[-73.4973,45.537]}},{"type":"Feature","properties":{"npri_id":"0000000391","comp_name":"BASELL CANADA","faci_name":"Varennes plant","city":"Varennes","province":"QC"},"geometry":{"type":"Point","coordinates":[-73.4151,45.6977]}},{"type":"Feature","properties":{"npri_id":"0000000393","comp_name":"Home Hardware Stores Ltd.","faci_name":"Paint & Home Products Division","city":"Burford","province":"ON"},"geometry":{"type":"Point","coordinates":[-80.4311,43.0967]}},{"type":"Feature","properties":{"npri_id":"0000000394","comp_name":"BARRICK GOLD INC.","faci_name":"Nickel Plate Mine","city":"Penticton","province":"BC"},"geometry":{"type":"Point","coordinates":[-120.0231,49.3711]}},{"type":"Feature","properties":{"npri_id":"0000000397","comp_name":"Honda Canada Inc.","faci_name":"Alliston","city":"Alliston","province":"ON"},"geometry":{"type":"Point","coordinates":[-79.8408,44.1486]}},{"type":"Feature","properties":{"npri_id":"0000000400","comp_name":"Dover Packaging Limited (formerly Howell Packaging Limited)","faci_name":null,"city":"Burlington","province":"ON"},"geometry":{"type":"Point","coordinates":[-79.8051,43.364]}},{"type":"Feature","properties":{"npri_id":"0000000403","comp_name":"Husky Oil Operations Limited","faci_name":"Lloydminster Refinery","city":"LLoydminster","province":"AB"},"geometry":{"type":"Point","coordinates":[-110.0183,53.2885]}},{"type":"Feature","properties":{"npri_id":"0000000405","comp_name":"Husky Oil Operations Limited","faci_name":"Prince George Refinery","city":"Prince George","province":"BC"},"geometry":{"type":"Point","coordinates":[-122.7028,53.9268]}},{"type":"Feature","properties":{"npri_id":"0000000407","comp_name":"Husky Oil Operations Limited","faci_name":"Ram River","city":"Rocky Mountain House","province":"AB"},"geometry":{"type":"Point","coordinates":[-115.33,52.1463]}},{"type":"Feature","properties":{"npri_id":"0000000409","comp_name":"Husky Oil Operations Limited","faci_name":"Lloydminster Upgrader","city":"Lloydminster","province":"SK"},"geometry":{"type":"Point","coordinates":[-109.9489,53.263]}},{"type":"Feature","properties":{"npri_id":"0000000417","comp_name":"ICI Autocolor","faci_name":"ICI Autocolor","city":"Toronto","province":"ON"},"geometry":{"type":"Point","coordinates":[-79.4611,43.6992]}},{"type":"Feature","properties":{"npri_id":"0000000420","comp_name":"ICI Canada Inc","faci_name":"McMasterville Complex","city":"McMasterville","province":"QC"},"geometry":{"type":"Point","coordinates":[-73.1984,45.571]}},{"type":"Feature","properties":{"npri_id":"0000000421","comp_name":"ICL Engineering Ltd.","faci_name":null,"city":"Richmond","province":"BC"},"geometry":{"type":"Point","coordinates":[-123.1096,49.1981]}},{"type":"Feature","properties":{"npri_id":"0000000422","comp_name":"Icynene Inc.","faci_name":"Manufacturing Facility","city":"Mississauga","province":"ON"},"geometry":{"type":"Point","coordinates":[-79.6647,43.6269]}},{"type":"Feature","properties":{"npri_id":"0000000423","comp_name":"The International Group Inc.","faci_name":"Agincourt Plant","city":"Toronto","province":"ON"},"geometry":{"type":"Point","coordinates":[-79.2763,43.7841]}},{"type":"Feature","properties":{"npri_id":"0000000424","comp_name":"IMPERIAL OIL","faci_name":"Bonnie Glen Gas Plant","city":"Thorsby","province":"AB"},"geometry":{"type":"Point","coordinates":[-113.921,53.0481]}},{"type":"Feature","properties":{"npri_id":"0000000426","comp_name":"Imperial Oil Resources","faci_name":"Quirk Creek Gas Plant","city":"Millarville","province":"AB"},"geometry":{"type":"Point","coordinates":[-114.4947,50.7477]}},{"type":"Feature","properties":{"npri_id":"0000000428","comp_name":"Imperial Oil Resources","faci_name":"Norman Wells Central Processing Facility","city":"Norman Wells","province":"NT"},"geometry":{"type":"Point","coordinates":[-126.8812,65.2873]}},{"type":"Feature","properties":{"npri_id":"0000000430","comp_name":"IMPERIAL OIL","faci_name":"Leduc Woodbend Gas Conservation Plant","city":"Devon","province":"AB"},"geometry":{"type":"Point","coordinates":[-113.715,53.3546]}},{"type":"Feature","properties":{"npri_id":"0000000432","comp_name":"Devon Canada Corporation","faci_name":"Wapiti Gas Plant","city":"Grovedale","province":"AB"},"geometry":{"type":"Point","coordinates":[-119.1953,54.9527]}},{"type":"Feature","properties":{"npri_id":"0000000434","comp_name":"IMPERIAL OIL","faci_name":"Golden Spike Gas Conservation Plant","city":"Devon","province":"AB"},"geometry":{"type":"Point","coordinates":[-113.9044,53.4213]}},{"type":"Feature","properties":{"npri_id":"0000000436","comp_name":"Everdell Gas Plant","faci_name":null,"city":"Rocky Mountain House","province":"AB"},"geometry":{"type":"Point","coordinates":[-114.9708,52.2865]}},{"type":"Feature","properties":{"npri_id":"0000000438","comp_name":"ARC Resources","faci_name":"Redwater Sour Gas Plant 01-29","city":"n/a","province":"AB"},"geometry":{"type":"Point","coordinates":[-113.078,53.9527]}},{"type":"Feature","properties":{"npri_id":"0000000440","comp_name":"Pengrowth Energy Corporation","faci_name":"Judy Creek Gas Conservation Plant","city":"Swan Hills","province":"AB"},"geometry":{"type":"Point","coordinates":[-115.5229,54.5723]}},{"type":"Feature","properties":{"npri_id":"0000000442","comp_name":"Imperial Oil Resources","faci_name":"Cold Lake Heavy Oil Plants","city":"Grande Centre","province":"AB"},"geometry":{"type":"Point","coordinates":[-110.395,54.5964]}},{"type":"Feature","properties":{"npri_id":"0000000444","comp_name":"Vale Canada Limited","faci_name":"Copper Cliff Smelter","city":"Copper Cliff","province":"ON"},"geometry":{"type":"Point","coordinates":[-81.0553,46.4786]}},{"type":"Feature","properties":{"npri_id":"0000000447","comp_name":"Diageo Canada Inc.","faci_name":"Usine de Valleyfield","city":"Salaberry-de-Valleyfield","province":"QC"},"geometry":{"type":"Point","coordinates":[-74.1197,45.2561]}},{"type":"Feature","properties":{"npri_id":"0000000448","comp_name":"Dynamic Tire Corp.","faci_name":"Dynamic Tire Corp., Solid Tire Division","city":"Mississauga","province":"ON"},"geometry":{"type":"Point","coordinates":[-79.5772,43.6206]}},{"type":"Feature","properties":{"npri_id":"0000000449","comp_name":"Ifastgroupe","faci_name":"INFASCO","city":"Marieville","province":"QC"},"geometry":{"type":"Point","coordinates":[-73.1673,45.431]}},{"type":"Feature","properties":{"npri_id":"0000000452","comp_name":"IMT Partnership","faci_name":"FORGE DIVISION","city":"Port Colborne","province":"ON"},"geometry":{"type":"Point","coordinates":[-79.2297,42.8855]}},{"type":"Feature","properties":{"npri_id":"0000000455","comp_name":"Ingot Metal Co. Ltd.","faci_name":"INGOT METAL COMPANY LIMITED","city":"Weston","province":"ON"},"geometry":{"type":"Point","coordinates":[-79.5488,43.7595]}},{"type":"Feature","properties":{"npri_id":"0000000456","comp_name":"MDS","faci_name":"Ingram & Bell","city":"Don Mills","province":"ON"},"geometry":{"type":"Point","coordinates":[-79.357,43.744]}},{"type":"Feature","properties":{"npri_id":"0000000459","comp_name":"Celliance Corporation","faci_name":"Celliance Toronto","city":"Toronto","province":"ON"},"geometry":{"type":"Point","coordinates":[-79.4758,43.6742]}},{"type":"Feature","properties":{"npri_id":"0000000461","comp_name":"Jamaica MFG(Canada) Co. Ltd.","faci_name":"Jamaica MFG(Canada) Co. Ltd.","city":"Prescott","province":"ON"},"geometry":{"type":"Point","coordinates":[-75.5272,44.7233]}},{"type":"Feature","properties":{"npri_id":"0000000462","comp_name":"MARATHON PULP INC","faci_name":"MARATHON PULP - MARATHON","city":"Marathon","province":"ON"},"geometry":{"type":"Point","coordinates":[-86.395,48.7183]}},{"type":"Feature","properties":{"npri_id":"0000000464","comp_name":"Jan Woodlands Inc.","faci_name":"Jan Woodlands (2001) Inc.","city":"Bancroft","province":"ON"},"geometry":{"type":"Point","coordinates":[-77.8322,45.0467]}},{"type":"Feature","properties":{"npri_id":"0000000465","comp_name":"MINE JEFFREY","faci_name":"Mine Jeffrey","city":"Danville","province":"QC"},"geometry":{"type":"Point","coordinates":[-71.9532,45.7733]}},{"type":"Feature","properties":{"npri_id":"0000000466","comp_name":"John E. Goudey Mfg. Ltd.","faci_name":"John E. Goudey Mfg Limited","city":"Toronto","province":"ON"},"geometry":{"type":"Point","coordinates":[-79.4444,43.6683]}},{"type":"Feature","properties":{"npri_id":"0000000476","comp_name":"Kitchen Craft of Canada","faci_name":"Kitchen Craft of Canada","city":"Winnipeg","province":"MB"},"geometry":{"type":"Point","coordinates":[-97.0258,49.9302]}},{"type":"Feature","properties":{"npri_id":"0000000477","comp_name":"Kleen-Flo Tumbler Industries Ltd.","faci_name":"KLEEN-FLO TUMBLER INDUSTRIES LTD.","city":"Brampton","province":"ON"},"geometry":{"type":"Point","coordinates":[-79.695,43.6967]}},{"type":"Feature","properties":{"npri_id":"0000000478","comp_name":"KODAK CANADA","faci_name":"KODAK CANADA INC.","city":"Toronto","province":"ON"},"geometry":{"type":"Point","coordinates":[-79.4856,43.6904]}},{"type":"Feature","properties":{"npri_id":"0000000479","comp_name":"Cariboo Pulp and Paper Company","faci_name":"Cariboo Pulp and Paper Company","city":"Quesnel","province":"BC"},"geometry":{"type":"Point","coordinates":[-122.4583,53.0]}},{"type":"Feature","properties":{"npri_id":"0000000485","comp_name":"Canada Starch Operating Company Inc.","faci_name":"Casco Inc. - London Plant","city":"London","province":"ON"},"geometry":{"type":"Point","coordinates":[-81.1942,42.9217]}},{"type":"Feature","properties":{"npri_id":"0000000488","comp_name":"Canada Starch Operating Company Inc.","faci_name":"Casco Inc. - Cardinal Plant","city":"Cardinal","province":"ON"},"geometry":{"type":"Point","coordinates":[-75.3767,44.785]}},{"type":"Feature","properties":{"npri_id":"0000000494","comp_name":"CHINOOK GLOBAL LIMITED","faci_name":"Sombra Operations","city":"Sombra","province":"ON"},"geometry":{"type":"Point","coordinates":[-82.4833,42.6941]}},{"type":"Feature","properties":{"npri_id":"0000000495","comp_name":"City of Windsor","faci_name":"Lou Romano Water Reclamation Plant","city":"Windsor","province":"ON"},"geometry":{"type":"Point","coordinates":[-83.0864,42.2833]}},{"type":"Feature","properties":{"npri_id":"0000000500","comp_name":"COLGATE-PALMOLIVE CANADA","faci_name":"LEASIDE","city":"Toronto","province":"ON"},"geometry":{"type":"Point","coordinates":[-79.3612,43.712]}},{"type":"Feature","properties":{"npri_id":"0000000502","comp_name":"ClearTech Inc.","faci_name":"Edmonton 142 Street Plant","city":"Edmonton","province":"AB"},"geometry":{"type":"Point","coordinates":[-113.566,53.5726]}},{"type":"Feature","properties":{"npri_id":"0000000504","comp_name":"Colgate-Palmolive Canada Inc.","faci_name":"Moncton","city":"Moncton","province":"NB"},"geometry":{"type":"Point","coordinates":[-64.8479,46.092]}},{"type":"Feature","properties":{"npri_id":"0000000506","comp_name":"COLGATE PALMOLIVE MONTREAL CANADA INC","faci_name":null,"city":"ST LAURANT","province":"QC"},"geometry":{"type":"Point","coordinates":[-73.753,45.4992]}},{"type":"Feature","properties":{"npri_id":"0000000508","comp_name":"Kemira Chemicals Canada Inc.","faci_name":"DELTA FACILITY","city":"Delta","province":"BC"},"geometry":{"type":"Point","coordinates":[-122.9372,49.1706]}},{"type":"Feature","properties":{"npri_id":"0000000511","comp_name":"O-I Canada Corp.","faci_name":"Plant #30 Toronto","city":"Toronto","province":"ON"},"geometry":{"type":"Point","coordinates":[-79.5303,43.6297]}},{"type":"Feature","properties":{"npri_id":"0000000514","comp_name":"O-I Canada Corp.","faci_name":"Plant #37 Lavington","city":"Lavington","province":"BC"},"geometry":{"type":"Point","coordinates":[-119.091,50.2299]}},{"type":"Feature","properties":{"npri_id":"0000000517","comp_name":"O-I Canada Corp.","faci_name":"Plant #31 Brampton","city":"Brampton","province":"ON"},"geometry":{"type":"Point","coordinates":[-79.7275,43.7043]}},{"type":"Feature","properties":{"npri_id":"0000000520","comp_name":"O-I Canada Corp.","faci_name":"Plant #36 Scoudouc","city":"Scoudouc","province":"NB"},"geometry":{"type":"Point","coordinates":[-64.5913,46.1677]}},{"type":"Feature","properties":{"npri_id":"0000000523","comp_name":"CONSUMERS GLASS (HAMILTON)","faci_name":"CONSUMERS GLASS (HAMILTON)","city":"HAMILTON","province":"ON"},"geometry":{"type":"Point","coordinates":[-79.8411,43.2572]}},{"type":"Feature","properties":{"npri_id":"0000000526","comp_name":"O-I Canada Corp.","faci_name":"Plant #33 Milton","city":"Milton","province":"ON"},"geometry":{"type":"Point","coordinates":[-79.9104,43.5257]}},{"type":"Feature","properties":{"npri_id":"0000000529","comp_name":"Les Industries COBOL Ltd","faci_name":null,"city":"Dorval","province":"QC"},"geometry":{"type":"Point","coordinates":[-73.7266,45.4597]}},{"type":"Feature","properties":{"npri_id":"0000000530","comp_name":"Spectra Premium Industries Inc.","faci_name":"SPI Heat Transfer Division","city":"Calgary","province":"AB"},"geometry":{"type":"Point","coordinates":[-114.059,50.992]}},{"type":"Feature","properties":{"npri_id":"0000000536","comp_name":"ConocoPhillips Canada Energy Partnership","faci_name":"Wembley Gas Plant","city":"Wembley","province":"AB"},"geometry":{"type":"Point","coordinates":[-119.223,55.3359]}},{"type":"Feature","properties":{"npri_id":"0000000538","comp_name":"Crown Metal Packaging Canada LP","faci_name":"CROWN METAL PACKAGING CANADA LP - PLT. 245","city":"Weston","province":"ON"},"geometry":{"type":"Point","coordinates":[-79.5361,43.7581]}},{"type":"Feature","properties":{"npri_id":"0000000541","comp_name":"CROWN Metal Packaging Canada LP","faci_name":"CROWN Metal Packaging Canada LP - Plant 246","city":"St. Laurenet","province":"QC"},"geometry":{"type":"Point","coordinates":[-73.7551,45.4975]}},{"type":"Feature","properties":{"npri_id":"0000000544","comp_name":"CROWN METAL PACKAGING CANADA LP","faci_name":"CROWN METAL PACKAGING CANADA LP - PLANT 257","city":"Chatham","province":"ON"},"geometry":{"type":"Point","coordinates":[-82.2165,42.3908]}},{"type":"Feature","properties":{"npri_id":"0000000547","comp_name":"Crown Chemical Products Inc.","faci_name":"CROWN CHEMICAL PRODUCTS INC.","city":"Mississauga","province":"ON"},"geometry":{"type":"Point","coordinates":[-79.6417,43.6622]}},{"type":"Feature","properties":{"npri_id":"0000000548","comp_name":"Crown Cork & Seal Canada Inc.-Plt.250","faci_name":"Crown Cork & Seal Canada Inc.-Plt.250","city":"Winnipeg","province":"MB"},"geometry":{"type":"Point","coordinates":[-97.0717,49.8856]}},{"type":"Feature","properties":{"npri_id":"0000000554","comp_name":"CROWN METAL PACKAGING CANADA LP","faci_name":"CROWNC Metal Packaging Canada - Plant 234 Montreal","city":"Montréal","province":"QC"},"geometry":{"type":"Point","coordinates":[-73.6658,45.5402]}},{"type":"Feature","properties":{"npri_id":"0000000557","comp_name":"Crown Metal Packaging Canada LP","faci_name":"CROWN METAL PACKAGING CANADA LP - Plant 235","city":"Calgary","province":"AB"},"geometry":{"type":"Point","coordinates":[-113.971,50.9873]}},{"type":"Feature","properties":{"npri_id":"0000000563","comp_name":"Curwood, Inc","faci_name":"Curwood Packaging (Canada) Limited","city":"Georgetown","province":"ON"},"geometry":{"type":"Point","coordinates":[-79.8886,43.6542]}},{"type":"Feature","properties":{"npri_id":"0000000566","comp_name":"Acorn Packaging Inc.","faci_name":"Acorn Packaging Inc.","city":"Mississauga","province":"ON"},"geometry":{"type":"Point","coordinates":[-79.5947,43.5857]}},{"type":"Feature","properties":{"npri_id":"0000000570","comp_name":"Dale technologies","faci_name":"Dale technologies","city":"wallaceburg","province":"ON"},"geometry":{"type":"Point","coordinates":[-82.3833,42.5833]}},{"type":"Feature","properties":{"npri_id":"0000000571","comp_name":"CpK Interior Products","faci_name":"CpK Interior Products-Port Hope Operations","city":"Port Hope","province":"ON"},"geometry":{"type":"Point","coordinates":[-78.2819,43.9517]}},{"type":"Feature","properties":{"npri_id":"0000000574","comp_name":"MARK IV INDUSTRIES","faci_name":"Dayco Canada Corp","city":"Weston","province":"ON"},"geometry":{"type":"Point","coordinates":[-79.5339,43.7633]}},{"type":"Feature","properties":{"npri_id":"0000000577","comp_name":"Dextran Products Ltd.","faci_name":"DEXTRAN PRODUCTS LIMITED","city":"Toronto","province":"ON"},"geometry":{"type":"Point","coordinates":[-79.2775,43.7231]}},{"type":"Feature","properties":{"npri_id":"0000000582","comp_name":"RAISIO CHEMICALS CANADA, INC.","faci_name":null,"city":"Trois-Rivières","province":"QC"},"geometry":{"type":"Point","coordinates":[-72.5833,46.3375]}},{"type":"Feature","properties":{"npri_id":"0000000585","comp_name":"Raisio Chemicals Canada, Inc.","faci_name":"Diachem Industries Ltd.","city":"Richmond","province":"BC"},"geometry":{"type":"Point","coordinates":[-123.0979,49.1279]}},{"type":"Feature","properties":{"npri_id":"0000000588","comp_name":"Raisio Chemicals Canada, Inc.","faci_name":"PAC Plant","city":"Squamish","province":"BC"},"geometry":{"type":"Point","coordinates":[-123.1596,49.6914]}},{"type":"Feature","properties":{"npri_id":"0000000591","comp_name":"DiverseyLever Canada","faci_name":"Mississauga","city":"Mississauga","province":"ON"},"geometry":{"type":"Point","coordinates":[-79.6392,43.5018]}},{"type":"Feature","properties":{"npri_id":"0000000594","comp_name":"Diversey Canada Inc.","faci_name":"Candiac","city":"Candiac","province":"QC"},"geometry":{"type":"Point","coordinates":[-73.5183,45.3945]}},{"type":"Feature","properties":{"npri_id":"0000000597","comp_name":"DIVERSEYLEVER CANADA","faci_name":"VANCOUVER","city":"NEW WESTMINISTER","province":"BC"},"geometry":{"type":"Point","coordinates":[-122.9339,49.1801]}},{"type":"Feature","properties":{"npri_id":"0000000600","comp_name":"DiverseyLever Canada","faci_name":"Winnipeg","city":"Winnipeg","province":"MB"},"geometry":{"type":"Point","coordinates":[-97.2083,49.9114]}},{"type":"Feature","properties":{"npri_id":"0000000603","comp_name":"DIVERSEY INC. DARTMOUTH","faci_name":null,"city":"DARTMOUTH","province":"NS"},"geometry":{"type":"Point","coordinates":[-63.6128,44.7091]}},{"type":"Feature","properties":{"npri_id":"0000000606","comp_name":"ESCO Limited","faci_name":"ESCO - PORT COQUITLAM","city":"Port Coquitlam","province":"BC"},"geometry":{"type":"Point","coordinates":[-122.7664,49.2577]}},{"type":"Feature","properties":{"npri_id":"0000000612","comp_name":"Hitachi Construction Truck Manufacturing Ltd.","faci_name":"Hitachi","city":"Guelph","province":"ON"},"geometry":{"type":"Point","coordinates":[-80.2917,43.5561]}},{"type":"Feature","properties":{"npri_id":"0000000618","comp_name":"Louisiana-Pacific Canada Ltd.","faci_name":"Golden EWP Division","city":"Golden","province":"BC"},"geometry":{"type":"Point","coordinates":[-116.9804,51.3138]}},{"type":"Feature","properties":{"npri_id":"0000000621","comp_name":"Evans Forest Products Limited","faci_name":"Donald Mill","city":"Golden","province":"BC"},"geometry":{"type":"Point","coordinates":[-123.1761,51.4898]}},{"type":"Feature","properties":{"npri_id":"0000000626","comp_name":"Ayerst Organics Div. Wyeth Ayerst Canada Inc.","faci_name":null,"city":"Brandon","province":"MB"},"geometry":{"type":"Point","coordinates":[-99.9165,49.8471]}},{"type":"Feature","properties":{"npri_id":"0000000629","comp_name":"Boeing Canada Winnipeg","faci_name":"BOEING CANADA WINNIPEG","city":"Winnipeg","province":"MB"},"geometry":{"type":"Point","coordinates":[-97.2667,49.8948]}},{"type":"Feature","properties":{"npri_id":"0000000632","comp_name":"Brimac Anodizing Ltd.","faci_name":"BRIMAC ANODIZING (1985) LIMITED","city":"Toronto","province":"ON"},"geometry":{"type":"Point","coordinates":[-79.5236,43.6128]}},{"type":"Feature","properties":{"npri_id":"0000000634","comp_name":"Canda Brick Ltd","faci_name":"Canada Brick, Streetsville","city":"Mississauga","province":"ON"},"geometry":{"type":"Point","coordinates":[-79.7265,43.5882]}},{"type":"Feature","properties":{"npri_id":"0000000635","comp_name":"Hanson Brick","faci_name":"Hanson Brick - Burlington","city":"Burlington","province":"ON"},"geometry":{"type":"Point","coordinates":[-79.8081,43.4153]}},{"type":"Feature","properties":{"npri_id":"0000000637","comp_name":"Hanson Brick","faci_name":"Hanson Brick - Aldershot","city":"Aldershot","province":"ON"},"geometry":{"type":"Point","coordinates":[-75.5757,45.29668]}},{"type":"Feature","properties":{"npri_id":"0000000639","comp_name":"Hanson Brick","faci_name":"Hanson Brick, St Lawrence Plant","city":"La Prairie","province":"QC"},"geometry":{"type":"Point","coordinates":[-73.4942,45.4062]}},{"type":"Feature","properties":{"npri_id":"0000000640","comp_name":"Estevan Brick Div, Canada Brick","faci_name":null,"city":"Estevan","province":"SK"},"geometry":{"type":"Point","coordinates":[-103.0014,49.1417]}},{"type":"Feature","properties":{"npri_id":"0000000642","comp_name":"The Canada Metal Company Limited","faci_name":"Toronto Oxide Plant","city":"Toronto","province":"ON"},"geometry":{"type":"Point","coordinates":[-79.3317,43.6597]}},{"type":"Feature","properties":{"npri_id":"0000000643","comp_name":"CHEMIRCO CHEMICALS","faci_name":null,"city":"TORONTO","province":"ON"},"geometry":{"type":"Point","coordinates":[-79.4479,43.6695]}},{"type":"Feature","properties":{"npri_id":"0000000645","comp_name":"CANADIAN BLUE BIRD COACH","faci_name":"Brantford","city":"Brantford","province":"ON"},"geometry":{"type":"Point","coordinates":[-80.3422,43.1269]}},{"type":"Feature","properties":{"npri_id":"0000000652","comp_name":"CFC/INX LTEE","faci_name":null,"city":"LAVAL","province":"QC"},"geometry":{"type":"Point","coordinates":[-73.7281,45.5783]}},{"type":"Feature","properties":{"npri_id":"0000000653","comp_name":"Mazeppa Processing Partnership Limited","faci_name":"Mazeppa Sour Gas Plant","city":"High River","province":"AB"},"geometry":{"type":"Point","coordinates":[-113.772,50.6475]}},{"type":"Feature","properties":{"npri_id":"0000000656","comp_name":"Durez Canada Company, Ltd.","faci_name":"Durez Canada","city":"Fort Erie","province":"ON"},"geometry":{"type":"Point","coordinates":[-78.9303,42.9247]}},{"type":"Feature","properties":{"npri_id":"0000000658","comp_name":"The Canadian Salt Company Limited","faci_name":"Belle Plaine Facility","city":"Belle Plaine","province":"SK"},"geometry":{"type":"Point","coordinates":[-105.1562,50.3954]}},{"type":"Feature","properties":{"npri_id":"0000000661","comp_name":"Canadian Turbo Inc., Lubrefinery","faci_name":"Canadian Turbo Inc., Lubrefinery","city":"Edmonton","province":"AB"},"geometry":{"type":"Point","coordinates":[-113.4254,53.5947]}},{"type":"Feature","properties":{"npri_id":"0000000664","comp_name":"MUELLER CANADA","faci_name":"Canvil","city":"Simcoe","province":"ON"},"geometry":{"type":"Point","coordinates":[-80.3184,42.8481]}},{"type":"Feature","properties":{"npri_id":"0000000666","comp_name":"Eagle Ottawa Canada, Ltd.","faci_name":null,"city":"Acton","province":"ON"},"geometry":{"type":"Point","coordinates":[-80.0429,43.6354]}},{"type":"Feature","properties":{"npri_id":"0000000668","comp_name":"British Columbia Packers Ltd.","faci_name":"Steveston Plant","city":"Richmond","province":"BC"},"geometry":{"type":"Point","coordinates":[-123.1642,49.1383]}},{"type":"Feature","properties":{"npri_id":"0000000671","comp_name":"Dynoplast a Division of Dyno Nobel Ltd","faci_name":null,"city":"Saint John","province":"NB"},"geometry":{"type":"Point","coordinates":[-66.0043,45.2739]}},{"type":"Feature","properties":{"npri_id":"0000000672","comp_name":"Zellstoff Celgar Limited Partnership","faci_name":"Zellstoff Celgar Limited Partnership","city":"Castlegar","province":"BC"},"geometry":{"type":"Point","coordinates":[-117.728,49.3357]}},{"type":"Feature","properties":{"npri_id":"0000000675","comp_name":"Tiercon Industries Inc.","faci_name":"CCI Division","city":"Oakville","province":"ON"},"geometry":{"type":"Point","coordinates":[-79.709,43.4268]}},{"type":"Feature","properties":{"npri_id":"0000000676","comp_name":"Goodyear Canada","faci_name":"Production CentroPneus div Goodyear","city":"St-Jean sur Richelieu","province":"QC"},"geometry":{"type":"Point","coordinates":[-73.2882,45.3093]}},{"type":"Feature","properties":{"npri_id":"0000000679","comp_name":"Chembond Limited","faci_name":null,"city":"Brampton","province":"ON"},"geometry":{"type":"Point","coordinates":[-79.7156,43.7493]}},{"type":"Feature","properties":{"npri_id":"0000000680","comp_name":"Chevron Canada Resources","faci_name":"Bigoray Sour Gas Plant","city":"Drayton Valley","province":"AB"},"geometry":{"type":"Point","coordinates":[-115.3169,53.3887]}},{"type":"Feature","properties":{"npri_id":"0000000683","comp_name":"SemCams ULC","faci_name":"Kaybob South #3 Gas Plant","city":"Fox Creek","province":"AB"},"geometry":{"type":"Point","coordinates":[-116.6322,54.1944]}},{"type":"Feature","properties":{"npri_id":"0000000686","comp_name":"Penn West Petroleum Ltd.","faci_name":"Acheson Sour Gas Plant 05-02-053-26W4","city":"na","province":"AB"},"geometry":{"type":"Point","coordinates":[-113.7348,53.5468]}},{"type":"Feature","properties":{"npri_id":"0000000689","comp_name":"Keyera Corp","faci_name":"Pembina  North Gas Plant","city":"Drayton Valley","province":"AB"},"geometry":{"type":"Point","coordinates":[-115.6743,53.245]}},{"type":"Feature","properties":{"npri_id":"0000000692","comp_name":"Chevron Canada Resources","faci_name":"Medicine Lodge Sour Gas Plant","city":"Edson","province":"AB"},"geometry":{"type":"Point","coordinates":[-117.0365,53.4759]}},{"type":"Feature","properties":{"npri_id":"0000000695","comp_name":"PENN WEST PETROLEUM","faci_name":"Mitsue Gas Plant 14-30-072-04W5","city":"Slave Lake","province":"AB"},"geometry":{"type":"Point","coordinates":[-114.6172,55.3583]}},{"type":"Feature","properties":{"npri_id":"0000000698","comp_name":"Keyera Corp","faci_name":"Fort Saskatchewan Plant","city":"Fort Saskatchewan","province":"AB"},"geometry":{"type":"Point","coordinates":[-113.1645,53.7469]}},{"type":"Feature","properties":{"npri_id":"0000000701","comp_name":"Kubota Metal Corp","faci_name":"Kubota Metal Corp - Fahramet Division","city":"Orillia","province":"ON"},"geometry":{"type":"Point","coordinates":[-79.4326,44.6259]}},{"type":"Feature","properties":{"npri_id":"0000000702","comp_name":"Lafarge Canada Inc.","faci_name":"Richmond Cement Plant","city":"Richmond","province":"BC"},"geometry":{"type":"Point","coordinates":[-123.0032,49.1591]}},{"type":"Feature","properties":{"npri_id":"0000000705","comp_name":"Lallemand Inc.","faci_name":"USINE MONTREAL","city":"Montréal","province":"QC"},"geometry":{"type":"Point","coordinates":[-73.5447,45.5389]}},{"type":"Feature","properties":{"npri_id":"0000000706","comp_name":"LAMBTON AREA WATER SUPPLY SYSTEM","faci_name":"LAMBTON AREA WATER SUPPLY SYSTEM","city":"SARNIA ONT. N7T7J9","province":"ON"},"geometry":{"type":"Point","coordinates":[-82.4081,42.9706]}},{"type":"Feature","properties":{"npri_id":"0000000708","comp_name":"Lear Canada","faci_name":"Ajax","city":"Ajax","province":"ON"},"geometry":{"type":"Point","coordinates":[-79.021,43.8339]}},{"type":"Feature","properties":{"npri_id":"0000000711","comp_name":"Flint Ink North America Corporation","faci_name":"Flint Ink - Toronto","city":"Concord","province":"ON"},"geometry":{"type":"Point","coordinates":[-79.5284,43.8007]}},{"type":"Feature","properties":{"npri_id":"0000000715","comp_name":"L&M Screw Machine Products Limited","faci_name":null,"city":"North York","province":"ON"},"geometry":{"type":"Point","coordinates":[-79.5642,43.7579]}},{"type":"Feature","properties":{"npri_id":"0000000716","comp_name":"Locweld Inc.","faci_name":"LOCWELD - CANDIAC","city":"Candiac","province":"QC"},"geometry":{"type":"Point","coordinates":[-73.5247,45.3968]}},{"type":"Feature","properties":{"npri_id":"0000000717","comp_name":"Dana Canada Corp.","faci_name":"Dana Cambridge","city":"Cambridge","province":"ON"},"geometry":{"type":"Point","coordinates":[-80.2916,43.3645]}},{"type":"Feature","properties":{"npri_id":"0000000718","comp_name":"Louisiana-Pacific Canada Ltd.","faci_name":"LP Dawson Creek OSB","city":"Dawson Creek","province":"BC"},"geometry":{"type":"Point","coordinates":[-120.2753,55.7814]}},{"type":"Feature","properties":{"npri_id":"0000000721","comp_name":"Macco Organiques Inc.","faci_name":"Usine de Valleyfield","city":"Valleyfield","province":"QC"},"geometry":{"type":"Point","coordinates":[-74.1039,45.2624]}},{"type":"Feature","properties":{"npri_id":"0000000722","comp_name":"2121865 Ontario Ltd.","faci_name":"MacDonald & White Varnish & Paint Company Limited","city":"Windsor","province":"ON"},"geometry":{"type":"Point","coordinates":[-83.0043,42.3175]}},{"type":"Feature","properties":{"npri_id":"0000000723","comp_name":"Catalyst Paper Corporation","faci_name":"Powell River Division","city":"Powell River","province":"BC"},"geometry":{"type":"Point","coordinates":[-124.5516,49.8727]}},{"type":"Feature","properties":{"npri_id":"0000000725","comp_name":"MACtac Canada Ltd/Ltee","faci_name":"Bramption Facility","city":"Brampton","province":"ON"},"geometry":{"type":"Point","coordinates":[-79.7381,43.6876]}},{"type":"Feature","properties":{"npri_id":"0000000728","comp_name":"Mancuso Chemicals Limited","faci_name":"NIAGARA FALLS","city":"Niagara Falls","province":"ON"},"geometry":{"type":"Point","coordinates":[-79.088,43.0552]}},{"type":"Feature","properties":{"npri_id":"0000000729","comp_name":"MAPEI Inc.","faci_name":"MAPEI Inc.","city":"Laval","province":"QC"},"geometry":{"type":"Point","coordinates":[-73.7358,45.5908]}},{"type":"Feature","properties":{"npri_id":"0000000732","comp_name":"Metalex Products Ltd.","faci_name":"METALEX PRODUCTS - RICHMOND","city":"Richmond","province":"BC"},"geometry":{"type":"Point","coordinates":[-123.092,49.1941]}},{"type":"Feature","properties":{"npri_id":"0000000733","comp_name":"PAINTPLAS INC.","faci_name":"650 FINLEY AVE.","city":"AJAX","province":"ON"},"geometry":{"type":"Point","coordinates":[-79.0267,43.832]}},{"type":"Feature","properties":{"npri_id":"0000000734","comp_name":"Mitsubishi Electronics Industries Canada Inc.","faci_name":"Midland","city":"Midland","province":"ON"},"geometry":{"type":"Point","coordinates":[-79.8517,44.734]}},{"type":"Feature","properties":{"npri_id":"0000000735","comp_name":"ExxonMobil Chemical Films Canada Ltd.","faci_name":"ExxonMobil Chemical Films Canada Ltd.","city":"Belleville","province":"ON"},"geometry":{"type":"Point","coordinates":[-77.3678,44.2]}},{"type":"Feature","properties":{"npri_id":"0000000738","comp_name":"Modine of Canada Ltd.","faci_name":"Milton, ON","city":"Milton","province":"ON"},"geometry":{"type":"Point","coordinates":[-79.8898,43.5301]}},{"type":"Feature","properties":{"npri_id":"0000000741","comp_name":"Morbern Inc.","faci_name":"Morbern Inc.","city":"Cornwall","province":"ON"},"geometry":{"type":"Point","coordinates":[-74.6684,45.033]}},{"type":"Feature","properties":{"npri_id":"0000000742","comp_name":"National Rubber Technologies Corp.","faci_name":"Symington Plant","city":"Toronto","province":"ON"},"geometry":{"type":"Point","coordinates":[-79.4522,43.6675]}},{"type":"Feature","properties":{"npri_id":"0000000743","comp_name":"National Rubber Technologies Corp.","faci_name":"Cawthra Plant","city":"Toronto","province":"ON"},"geometry":{"type":"Point","coordinates":[-79.4637,43.6687]}},{"type":"Feature","properties":{"npri_id":"0000000744","comp_name":"Department of National Defence","faci_name":"8 Wing Trenton Environmental Management","city":"Astra","province":"ON"},"geometry":{"type":"Point","coordinates":[-77.5317,44.1119]}},{"type":"Feature","properties":{"npri_id":"0000000745","comp_name":"Department of National Defence","faci_name":"14 Wing Greenwood","city":"Greenwood","province":"NS"},"geometry":{"type":"Point","coordinates":[-64.9142,44.9834]}},{"type":"Feature","properties":{"npri_id":"0000000746","comp_name":"Department of National Defence","faci_name":"5 Wing Goose Bay","city":"Happy Valley-Goose B","province":"NL"},"geometry":{"type":"Point","coordinates":[-60.4175,53.3149]}},{"type":"Feature","properties":{"npri_id":"0000000747","comp_name":"StatoilHydro","faci_name":"StatoilHydro Canada Ltd","city":"Bécancour","province":"QC"},"geometry":{"type":"Point","coordinates":[-72.402,46.3714]}},{"type":"Feature","properties":{"npri_id":"0000000748","comp_name":"NCH Corp.","faci_name":"NCH Canada Inc","city":"Brampton","province":"ON"},"geometry":{"type":"Point","coordinates":[-79.7212,43.6969]}},{"type":"Feature","properties":{"npri_id":"0000000750","comp_name":"Niagara Paint INC.","faci_name":"Niagara Paint","city":"Hamilton","province":"ON"},"geometry":{"type":"Point","coordinates":[-79.8412,43.2632]}},{"type":"Feature","properties":{"npri_id":"0000000751","comp_name":"CLOVERDALE PAINT","faci_name":"Northern Paint","city":"Winnipeg","province":"MB"},"geometry":{"type":"Point","coordinates":[-97.1406,49.8766]}},{"type":"Feature","properties":{"npri_id":"0000000752","comp_name":"NOVA CHEMICALS","faci_name":"Usine de Montréal","city":"Montréal","province":"QC"},"geometry":{"type":"Point","coordinates":[-73.5133,45.6389]}},{"type":"Feature","properties":{"npri_id":"0000000755","comp_name":"NUTRIBEC LTEE","faci_name":"NUTRIBEC MTL","city":"MONTREAL","province":"QC"},"geometry":{"type":"Point","coordinates":[-73.5528,45.5361]}},{"type":"Feature","properties":{"npri_id":"0000000757","comp_name":"Ostrem Chemical Co. Ltd.","faci_name":"Ostrem Chemical Co. Ltd.","city":"Edmonton","province":"AB"},"geometry":{"type":"Point","coordinates":[-113.3781,53.5164]}},{"type":"Feature","properties":{"npri_id":"0000000758","comp_name":"Uniboard Canada Inc","faci_name":"Division Mont-Laurier","city":"Mont-Laurier","province":"QC"},"geometry":{"type":"Point","coordinates":[-75.4756,46.555]}},{"type":"Feature","properties":{"npri_id":"0000000762","comp_name":"PPG Phillips Industrial Coatings Inc","faci_name":"PPG PHILLIPS INDUSTRIAL COATINGS - WINNIPEG","city":"Winnipeg","province":"MB"},"geometry":{"type":"Point","coordinates":[-97.0389,49.8811]}},{"type":"Feature","properties":{"npri_id":"0000000764","comp_name":"Plasti-Fab Ltd.","faci_name":"Plasti-Fab Polymer Plant & Plasti-Fab Crossfield","city":"Crossfield","province":"AB"},"geometry":{"type":"Point","coordinates":[-114.027,51.4191]}},{"type":"Feature","properties":{"npri_id":"0000000765","comp_name":"PPG Canada Inc.","faci_name":"Beauharnois","city":"Beauharnois","province":"QC"},"geometry":{"type":"Point","coordinates":[-73.894,45.309]}},{"type":"Feature","properties":{"npri_id":"0000000767","comp_name":"Praxair Canada Inc.","faci_name":"PRAXAIR CANADA INC. PRENTISS AIR SEPARATION PLANT","city":"Prentiss","province":"AB"},"geometry":{"type":"Point","coordinates":[-113.6001,52.3869]}},{"type":"Feature","properties":{"npri_id":"0000000770","comp_name":"City of Ottawa","faci_name":"Robert O. Pickard Environmental Centre","city":"Gloucester","province":"ON"},"geometry":{"type":"Point","coordinates":[-75.5908,45.4606]}},{"type":"Feature","properties":{"npri_id":"0000000773","comp_name":"Cables PTI Cables Inc.","faci_name":"CABLES PTI CABLES - POINTE  CLAIRE","city":"Pointe-Claire","province":"QC"},"geometry":{"type":"Point","coordinates":[-73.8021,45.4704]}},{"type":"Feature","properties":{"npri_id":"0000000775","comp_name":"AbibowCanada Inc.","faci_name":"Thorold Division","city":"Thorold","province":"ON"},"geometry":{"type":"Point","coordinates":[-79.1998,43.1063]}},{"type":"Feature","properties":{"npri_id":"0000000776","comp_name":"Reckitt Benckiser (Canada) Inc.","faci_name":"RECKITT BENCKISER (CANADA) INC.","city":"Toronto","province":"ON"},"geometry":{"type":"Point","coordinates":[-79.5296,43.6151]}},{"type":"Feature","properties":{"npri_id":"0000000778","comp_name":"RECOCHEM","faci_name":"BRAMPTON","city":"Brampton","province":"ON"},"geometry":{"type":"Point","coordinates":[-79.6912,43.7103]}},{"type":"Feature","properties":{"npri_id":"0000000781","comp_name":"Rechochem Inc.","faci_name":"ST LAURENT","city":"St-Laurent","province":"QC"},"geometry":{"type":"Point","coordinates":[-73.7142,45.483]}},{"type":"Feature","properties":{"npri_id":"0000000784","comp_name":"Rechochem Inc.","faci_name":"PORT COQUITLAM","city":"Port Coquitlam","province":"BC"},"geometry":{"type":"Point","coordinates":[-122.762,49.2525]}},{"type":"Feature","properties":{"npri_id":"0000000787","comp_name":"Napierville Refineries Inc.","faci_name":"Napierville","city":"Napierville","province":"QC"},"geometry":{"type":"Point","coordinates":[-73.4167,45.25]}},{"type":"Feature","properties":{"npri_id":"0000000790","comp_name":"Rechochem Inc.","faci_name":"NISKU","city":"Nisku","province":"AB"},"geometry":{"type":"Point","coordinates":[-113.5269,53.3436]}},{"type":"Feature","properties":{"npri_id":"0000000793","comp_name":"Reichhold Ltd.","faci_name":"Port Moody Plant","city":"Port Moody","province":"BC"},"geometry":{"type":"Point","coordinates":[-122.864,49.2786]}},{"type":"Feature","properties":{"npri_id":"0000000796","comp_name":"RSM Richter - Syndic faillite de Aleris Canada S.E.C.","faci_name":"Aleris S.E.C. - Trois-Rivières","city":"Trois-Rivières","province":"QC"},"geometry":{"type":"Point","coordinates":[-72.5194,46.3697]}},{"type":"Feature","properties":{"npri_id":"0000000798","comp_name":"RELIANCE FOUNDRY CO. LTD","faci_name":"RELIANCE FOUNDRY - SURREY","city":"Surrey","province":"BC"},"geometry":{"type":"Point","coordinates":[-122.8627,49.143]}},{"type":"Feature","properties":{"npri_id":"0000000799","comp_name":"Scapa North America Ltd.","faci_name":"SCAPA NORTH AMERICA","city":"Renfrew","province":"ON"},"geometry":{"type":"Point","coordinates":[-76.6606,45.4692]}},{"type":"Feature","properties":{"npri_id":"0000000800","comp_name":"Siltech Corporation","faci_name":"Mississauga Plant","city":"Mississauga","province":"ON"},"geometry":{"type":"Point","coordinates":[-79.6447,43.5689]}},{"type":"Feature","properties":{"npri_id":"0000000801","comp_name":"Clariant (Canada) Inc. Masterbatches Division","faci_name":"Mississauga","city":"Mississauga","province":"ON"},"geometry":{"type":"Point","coordinates":[-79.6387,43.6276]}},{"type":"Feature","properties":{"npri_id":"0000000804","comp_name":"Rieger Flexo and Gravure","faci_name":"RIEGER FLEXO AND GRAVURE","city":"Downsview","province":"ON"},"geometry":{"type":"Point","coordinates":[-79.4758,43.7736]}},{"type":"Feature","properties":{"npri_id":"0000000805","comp_name":"MSSC Canada","faci_name":"MSSC Canada","city":"Chatham","province":"ON"},"geometry":{"type":"Point","coordinates":[-82.1739,42.4006]}},{"type":"Feature","properties":{"npri_id":"0000000806","comp_name":"Evonik Oil Additives Canada Inc.","faci_name":"Morrisburg Plant","city":"Morrisburg","province":"ON"},"geometry":{"type":"Point","coordinates":[-75.1583,44.9136]}},{"type":"Feature","properties":{"npri_id":"0000000809","comp_name":"Toledo Technologies","faci_name":"Sandco Automotive Components Group","city":"Hamilton","province":"ON"},"geometry":{"type":"Point","coordinates":[-79.9696,43.3502]}},{"type":"Feature","properties":{"npri_id":"0000000810","comp_name":"Samuel Bingham Co.","faci_name":null,"city":"Toronto","province":"ON"},"geometry":{"type":"Point","coordinates":[-79.5273,43.6343]}},{"type":"Feature","properties":{"npri_id":"0000000813","comp_name":"Sani-Marc Inc","faci_name":"SANI-MARC INC.","city":"Victoriaville","province":"QC"},"geometry":{"type":"Point","coordinates":[-71.9575,46.0745]}},{"type":"Feature","properties":{"npri_id":"0000000814","comp_name":"Schwartz Chemical Corp.","faci_name":"SCHWARTZ CHEMICAL COROPORATION","city":"Pickering","province":"ON"},"geometry":{"type":"Point","coordinates":[-79.0578,43.8199]}},{"type":"Feature","properties":{"npri_id":"0000000815","comp_name":"Northern Pulp Nova Scotia Corporation","faci_name":"Northern Pulp Nova Scotia Corporation","city":"New Glasgow","province":"NS"},"geometry":{"type":"Point","coordinates":[-62.7183,45.6533]}},{"type":"Feature","properties":{"npri_id":"0000000818","comp_name":"Canusa-CPS","faci_name":"Huntsville","city":"Huntsville","province":"ON"},"geometry":{"type":"Point","coordinates":[-79.245,45.3173]}},{"type":"Feature","properties":{"npri_id":"0000000819","comp_name":"Marson Canada Inc.","faci_name":null,"city":"Toronto","province":"ON"},"geometry":{"type":"Point","coordinates":[-79.4751,43.6995]}},{"type":"Feature","properties":{"npri_id":"0000000821","comp_name":"Manitoba Hydro","faci_name":"Brandon Generating Station","city":"Brandon","province":"MB"},"geometry":{"type":"Point","coordinates":[-99.8896,49.8449]}},{"type":"Feature","properties":{"npri_id":"0000000823","comp_name":"Manitoba Hydro","faci_name":"Selkirk Generating Station","city":"Selkirk","province":"MB"},"geometry":{"type":"Point","coordinates":[-96.8522,50.1338]}},{"type":"Feature","properties":{"npri_id":"0000000848","comp_name":"Lethbridge Iron Works Co. Ltd.","faci_name":"LETHBRIDGE IRON WORKS - LETHBRIDGE","city":"Lethbridge","province":"AB"},"geometry":{"type":"Point","coordinates":[-112.793934,49.71035]}},{"type":"Feature","properties":{"npri_id":"0000000851","comp_name":"C.P. Loewen Enterprises Ltd.","faci_name":"Loewen","city":"Steinbach","province":"MB"},"geometry":{"type":"Point","coordinates":[-96.6896,49.5324]}},{"type":"Feature","properties":{"npri_id":"0000000853","comp_name":"Chemtrade Logistics Inc.","faci_name":"Chemtrade - Fort Saskatchewan CSC","city":"Fort Saskatchewan","province":"AB"},"geometry":{"type":"Point","coordinates":[-113.183,53.7185]}},{"type":"Feature","properties":{"npri_id":"0000000854","comp_name":"Marsulex Inc.","faci_name":"Customer Service Centre","city":"Tracy","province":"QC"},"geometry":{"type":"Point","coordinates":[-73.3561,45.7669]}},{"type":"Feature","properties":{"npri_id":"0000000855","comp_name":"Chemtrade Logistics Inc.","faci_name":"Niagara Falls Customer Service Centre","city":"Niagara Falls","province":"ON"},"geometry":{"type":"Point","coordinates":[-79.1003,43.0633]}},{"type":"Feature","properties":{"npri_id":"0000000856","comp_name":"FERROTEC FINISHING DIVISION","faci_name":"FERROTEC FINISHING DIVISION","city":"WINDSOR","province":"ON"},"geometry":{"type":"Point","coordinates":[-82.9094,42.3139]}},{"type":"Feature","properties":{"npri_id":"0000000859","comp_name":"McAsphalt Industries Limited","faci_name":"West Hill","city":"Toronto","province":"ON"},"geometry":{"type":"Point","coordinates":[-79.1909,43.8051]}},{"type":"Feature","properties":{"npri_id":"0000000862","comp_name":"BOEING TORONTO LTD.","faci_name":"BOEING TORONTO LTD.","city":"Toronto","province":"ON"},"geometry":{"type":"Point","coordinates":[-79.6387,43.6984]}},{"type":"Feature","properties":{"npri_id":"0000000864","comp_name":"MEAD JOHNSON CANADA","faci_name":null,"city":"BELLEVILLE","province":"ON"},"geometry":{"type":"Point","coordinates":[-77.3675,44.1632]}},{"type":"Feature","properties":{"npri_id":"0000000867","comp_name":"MERCK FROSST CANADA","faci_name":"MERCK FROSST CANADA - KIRKLAND","city":"Kirkland","province":"QC"},"geometry":{"type":"Point","coordinates":[-73.8449,45.4577]}},{"type":"Feature","properties":{"npri_id":"0000000870","comp_name":"Q3 Aluminum Technologies Inc.","faci_name":"Cornwall Plant","city":"Long-Sault","province":"ON"},"geometry":{"type":"Point","coordinates":[-74.7647,45.0764]}},{"type":"Feature","properties":{"npri_id":"0000000872","comp_name":"Methanex Corporation","faci_name":"Kitimat Marine Terminal","city":"Kitimat","province":"BC"},"geometry":{"type":"Point","coordinates":[-128.687,54.0293]}},{"type":"Feature","properties":{"npri_id":"0000000875","comp_name":"Meadow Lake Mechanical Pulp","faci_name":"Meadow Lake Mechanical Pulp","city":"Meadow Lake","province":"SK"},"geometry":{"type":"Point","coordinates":[-108.4333,54.1333]}},{"type":"Feature","properties":{"npri_id":"0000000878","comp_name":"Millar Western Forest Products Ltd.","faci_name":"Whitecourt Pulp Divison","city":"Whitecourt","province":"AB"},"geometry":{"type":"Point","coordinates":[-115.6917,54.1444]}},{"type":"Feature","properties":{"npri_id":"0000000879","comp_name":"Barrick Gold Corporation","faci_name":"Complexe Bousquet- Division Est-Malartic","city":"Malartic","province":"QC"},"geometry":{"type":"Point","coordinates":[-78.096,48.1292]}},{"type":"Feature","properties":{"npri_id":"0000000882","comp_name":"Division Terrains Aurifères","faci_name":null,"city":"Malartic","province":"QC"},"geometry":{"type":"Point","coordinates":[-78.1042,48.1333]}},{"type":"Feature","properties":{"npri_id":"0000000885","comp_name":"Bousquet No. 2","faci_name":null,"city":"Preissac","province":"QC"},"geometry":{"type":"Point","coordinates":[-78.3625,48.4083]}},{"type":"Feature","properties":{"npri_id":"0000000888","comp_name":"Bousquet No. 1","faci_name":null,"city":"Preissac","province":"QC"},"geometry":{"type":"Point","coordinates":[-78.3625,48.4083]}},{"type":"Feature","properties":{"npri_id":"0000000908","comp_name":"SAMUEL BINGHAM COMPANY","faci_name":"SAMUEL BINGHAM COMPANY","city":"TORONTO","province":"ON"},"geometry":{"type":"Point","coordinates":[-79.5247,43.6333]}},{"type":"Feature","properties":{"npri_id":"0000000917","comp_name":"AbibowCanada Inc.","faci_name":"Fort Frances Division","city":"Fort Frances","province":"ON"},"geometry":{"type":"Point","coordinates":[-93.4034,48.6111]}},{"type":"Feature","properties":{"npri_id":"0000000918","comp_name":"Bay Mills Limited, Brampton Division","faci_name":null,"city":"Brampton","province":"ON"},"geometry":{"type":"Point","coordinates":[-79.7801,43.6832]}},{"type":"Feature","properties":{"npri_id":"0000000921","comp_name":"Bartek Ingredients Inc.","faci_name":"Plant #2","city":"Stoney Creek","province":"ON"},"geometry":{"type":"Point","coordinates":[-79.7167,43.2322]}},{"type":"Feature","properties":{"npri_id":"0000000927","comp_name":"Avenor Inc.","faci_name":"Gold River Operations","city":"Gold River","province":"BC"},"geometry":{"type":"Point","coordinates":[-126.115,49.6872]}},{"type":"Feature","properties":{"npri_id":"0000000928","comp_name":"Domtar Inc.","faci_name":"Dryden Mill","city":"Dryden","province":"ON"},"geometry":{"type":"Point","coordinates":[-92.8472,49.7831]}},{"type":"Feature","properties":{"npri_id":"0000000929","comp_name":"AbiBow Canada Inc.","faci_name":"Usine de Gatineau","city":"Gatineau","province":"QC"},"geometry":{"type":"Point","coordinates":[-75.6556,45.4808]}},{"type":"Feature","properties":{"npri_id":"0000000930","comp_name":"AbibowCanada Inc.","faci_name":"Thunder Bay Operations","city":"Thunder Bay","province":"ON"},"geometry":{"type":"Point","coordinates":[-89.3067,48.3486]}},{"type":"Feature","properties":{"npri_id":"0000000931","comp_name":"Ampacet Canada Co.","faci_name":"Kitchener","city":"Kitchener","province":"ON"},"geometry":{"type":"Point","coordinates":[-80.4531,43.4061]}},{"type":"Feature","properties":{"npri_id":"0000000932","comp_name":"PolyOne Elastomers Canada, Inc.","faci_name":"Tillsonburg Facility","city":"Tillsonburg","province":"ON"},"geometry":{"type":"Point","coordinates":[-80.743,42.8411]}},{"type":"Feature","properties":{"npri_id":"0000000935","comp_name":"Bombardier Produits Récréatifs Inc.","faci_name":"Complexe A","city":"Valcourt","province":"QC"},"geometry":{"type":"Point","coordinates":[-72.3083,45.4917]}},{"type":"Feature","properties":{"npri_id":"0000000938","comp_name":"Boehme Filatex Canada Inc","faci_name":null,"city":"St-Jean-sur-Richelieu","province":"QC"},"geometry":{"type":"Point","coordinates":[-73.262,45.3051]}},{"type":"Feature","properties":{"npri_id":"0000000941","comp_name":"Lantic Inc. - Vancouver Refinery","faci_name":"Lantic Inc. - Vancouver Refinery","city":"Vancouver","province":"BC"},"geometry":{"type":"Point","coordinates":[-123.0802,49.2841]}},{"type":"Feature","properties":{"npri_id":"0000000944","comp_name":"ROGERS SUGAR LTD","faci_name":"Wininipeg Sugar Factory","city":"WINNIPEG","province":"MB"},"geometry":{"type":"Point","coordinates":[-97.1583,49.8277]}},{"type":"Feature","properties":{"npri_id":"0000000947","comp_name":"Lantic Inc. Taber Factory","faci_name":"Lantic Inc. Taber Beet Sugar Factory","city":"Taber","province":"AB"},"geometry":{"type":"Point","coordinates":[-112.1261,49.7894]}},{"type":"Feature","properties":{"npri_id":"0000000950","comp_name":"Alcatel Canada Inc.","faci_name":"Leaside Plant","city":"Toronto","province":"ON"},"geometry":{"type":"Point","coordinates":[-79.3609,43.709]}},{"type":"Feature","properties":{"npri_id":"0000000953","comp_name":"Essex Group Canada","faci_name":"Superior Essex","city":"Simcoe","province":"ON"},"geometry":{"type":"Point","coordinates":[-80.3025,42.8503]}},{"type":"Feature","properties":{"npri_id":"0000000956","comp_name":"Nexans Canada Inc.","faci_name":"Fergus Plant","city":"Fergus","province":"ON"},"geometry":{"type":"Point","coordinates":[-80.3793,43.7139]}},{"type":"Feature","properties":{"npri_id":"0000000959","comp_name":"Nexans Canada Inc.","faci_name":"Usine de coulée continue de Montréal-Est","city":"Montréal-Est","province":"QC"},"geometry":{"type":"Point","coordinates":[-73.5132,45.6291]}},{"type":"Feature","properties":{"npri_id":"0000000962","comp_name":"Alcatel Canada Wire","faci_name":"Hochelaga Plant","city":"Montreal","province":"QC"},"geometry":{"type":"Point","coordinates":[-73.5162,45.6071]}},{"type":"Feature","properties":{"npri_id":"0000000965","comp_name":"NEXANS CANADA INC","faci_name":"Quebec City Facility","city":"Ville Vanier","province":"QC"},"geometry":{"type":"Point","coordinates":[-71.2583,46.775]}},{"type":"Feature","properties":{"npri_id":"0000000968","comp_name":"Superior Cable Corporation","faci_name":"Winnipeg Plant","city":"Winnipeg","province":"MB"},"geometry":{"type":"Point","coordinates":[-97.1677,49.8377]}},{"type":"Feature","properties":{"npri_id":"0000000971","comp_name":"Nexans Canada Inc.","faci_name":"Weyburn Facility","city":"Weyburn","province":"SK"},"geometry":{"type":"Point","coordinates":[-103.831,49.6606]}},{"type":"Feature","properties":{"npri_id":"0000000978","comp_name":"AbibowCanada Inc.","faci_name":"Iroquois Falls Division","city":"Iroquois Falls","province":"ON"},"geometry":{"type":"Point","coordinates":[-80.6708,48.7644]}},{"type":"Feature","properties":{"npri_id":"0000000979","comp_name":"AbibowCanada Inc.","faci_name":"Usine Kénogami","city":"Jonquière","province":"QC"},"geometry":{"type":"Point","coordinates":[-71.2437,48.4289]}},{"type":"Feature","properties":{"npri_id":"0000000981","comp_name":"ABITIBI CONSOLIDATED COMPANY OF CANADA","faci_name":"Fort William Division","city":"Thunder Bay","province":"ON"},"geometry":{"type":"Point","coordinates":[-89.225,48.3483]}},{"type":"Feature","properties":{"npri_id":"0000000983","comp_name":"AbibowCanada Inc.","faci_name":"Division Alma","city":"Alma","province":"QC"},"geometry":{"type":"Point","coordinates":[-71.6558,48.565]}},{"type":"Feature","properties":{"npri_id":"0000000987","comp_name":"ABITIBI CONSOLIDATED DU CANADA","faci_name":"La Compagnie Abitibi Consolidated du Canada, Division Beaupr","city":"Beaupré","province":"QC"},"geometry":{"type":"Point","coordinates":[-70.8795,47.0429]}},{"type":"Feature","properties":{"npri_id":"0000000989","comp_name":"ADM/Ogilvie, Div. of ADM Agri Industries Ltd.","faci_name":null,"city":"Thunder Bay","province":"ON"},"geometry":{"type":"Point","coordinates":[-89.2493,48.3753]}},{"type":"Feature","properties":{"npri_id":"0000000992","comp_name":"Air Canada","faci_name":"Vancouver International Airport","city":"Richmond","province":"BC"},"geometry":{"type":"Point","coordinates":[-123.169,49.185]}},{"type":"Feature","properties":{"npri_id":"0000000998","comp_name":"Air Canada","faci_name":"Regina International Airport","city":"Regina","province":"SK"},"geometry":{"type":"Point","coordinates":[-104.658,50.4329]}},{"type":"Feature","properties":{"npri_id":"0000001002","comp_name":"Air Canada Ground Handling Services","faci_name":"Winnipeg International Airport","city":"Winnipeg","province":"MB"},"geometry":{"type":"Point","coordinates":[-97.2433,49.9108]}},{"type":"Feature","properties":{"npri_id":"0000001006","comp_name":"Air Canada","faci_name":"Ottawa International Airport","city":"Ottawa","province":"ON"},"geometry":{"type":"Point","coordinates":[-75.6647,45.32]}},{"type":"Feature","properties":{"npri_id":"0000001008","comp_name":"MIRABEL - AIR CANADA","faci_name":"MIRABEL INTERNATIONAL AIRPORT","city":"MIRABEL","province":"QC"},"geometry":{"type":"Point","coordinates":[-74.029,45.6836]}},{"type":"Feature","properties":{"npri_id":"0000001010","comp_name":"DORVAL - AIR CANADA","faci_name":"DORVAL INTERNATIONAL AIRPORT","city":"DORVAL","province":"QC"},"geometry":{"type":"Point","coordinates":[-73.7501,45.4583]}},{"type":"Feature","properties":{"npri_id":"0000001012","comp_name":"Air Canada","faci_name":"Quebec International Airport","city":"Quebec","province":"QC"},"geometry":{"type":"Point","coordinates":[-71.3884,46.7914]}},{"type":"Feature","properties":{"npri_id":"0000001014","comp_name":"Air Canada","faci_name":"Halifax International Airport","city":"Halifax","province":"NS"},"geometry":{"type":"Point","coordinates":[-63.5141,44.8887]}},{"type":"Feature","properties":{"npri_id":"0000001018","comp_name":"Air Canada","faci_name":"Fredericton International Airport","city":"Lincoln","province":"NB"},"geometry":{"type":"Point","coordinates":[-66.5307,45.8722]}},{"type":"Feature","properties":{"npri_id":"0000001020","comp_name":"Air Canada","faci_name":"Saint John International Airport","city":"Saint John","province":"NB"},"geometry":{"type":"Point","coordinates":[-65.8903,45.3277]}},{"type":"Feature","properties":{"npri_id":"0000001022","comp_name":"Air Canada","faci_name":"Moncton International Airport","city":"Dieppe","province":"NB"},"geometry":{"type":"Point","coordinates":[-64.6784,46.1053]}},{"type":"Feature","properties":{"npri_id":"0000001024","comp_name":"Air Canada","faci_name":"Charlottetown International Airport","city":"Maple Hills","province":"PE"},"geometry":{"type":"Point","coordinates":[-63.1304,46.2859]}},{"type":"Feature","properties":{"npri_id":"0000001026","comp_name":"Toronto - AIR CANADA","faci_name":"TORONTO INTERNATIONAL AIRPORT","city":"TORONTO","province":"ON"},"geometry":{"type":"Point","coordinates":[-79.6065,43.6795]}},{"type":"Feature","properties":{"npri_id":"0000001028","comp_name":"Alberta Newsprint Co.","faci_name":"ALBERTA NEWSPRINT","city":"Whitecourt","province":"AB"},"geometry":{"type":"Point","coordinates":[-115.806,54.1791]}},{"type":"Feature","properties":{"npri_id":"0000001033","comp_name":"Alberta Power (2000) Ltd.","faci_name":"Battle River Generating Station","city":"Forestburg","province":"AB"},"geometry":{"type":"Point","coordinates":[-112.1414,52.5647]}},{"type":"Feature","properties":{"npri_id":"0000001036","comp_name":"Alberta Power (2000) Ltd.","faci_name":"Sheerness Generating Station","city":"Hanna","province":"AB"},"geometry":{"type":"Point","coordinates":[-111.7861,51.5317]}},{"type":"Feature","properties":{"npri_id":"0000001039","comp_name":"Milner Power Limited Partnership by its GP Milner Power Inc.","faci_name":"H.R.Milner Generating Station","city":"Grande Cache","province":"AB"},"geometry":{"type":"Point","coordinates":[-119.104,54.0071]}},{"type":"Feature","properties":{"npri_id":"0000001042","comp_name":"SENA Waste Services","faci_name":"Swan Hills Treatment Center","city":"Swan Hills","province":"AB"},"geometry":{"type":"Point","coordinates":[-115.2186,54.775]}},{"type":"Feature","properties":{"npri_id":"0000001045","comp_name":"Albright & WIlson Americas Limited","faci_name":null,"city":"Long Harbour","province":"NL"},"geometry":{"type":"Point","coordinates":[-53.8166,47.4246]}},{"type":"Feature","properties":{"npri_id":"0000001048","comp_name":"Albright & Wilson Amériques","faci_name":"Usine de Varennes","city":"VArennes","province":"QC"},"geometry":{"type":"Point","coordinates":[-73.4306,45.6917]}},{"type":"Feature","properties":{"npri_id":"0000001051","comp_name":"Rhodia Canada Inc. (Albright & Wilson Amérique ltée)","faci_name":"Usine de Buckingham","city":"Buckingham","province":"QC"},"geometry":{"type":"Point","coordinates":[-75.4167,45.5958]}},{"type":"Feature","properties":{"npri_id":"0000001054","comp_name":"Innophos Canada Inc.","faci_name":"Port Maitland Plant","city":"Lowbanks","province":"ON"},"geometry":{"type":"Point","coordinates":[-79.5683,42.8631]}},{"type":"Feature","properties":{"npri_id":"0000001057","comp_name":"Alcan Aluminium Limited","faci_name":"Alcan Aluminium Limited","city":"Richmond","province":"BC"},"geometry":{"type":"Point","coordinates":[-123.0833,49.1972]}},{"type":"Feature","properties":{"npri_id":"0000001067","comp_name":"Aleris Specification Alloy Products Canada Company","faci_name":"Aleris Guelph","city":"Guelph","province":"ON"},"geometry":{"type":"Point","coordinates":[-80.3042,43.5394]}},{"type":"Feature","properties":{"npri_id":"0000001070","comp_name":"Essar Steel Algoma Inc.","faci_name":"Essar Steel Algoma Inc","city":"Sault Ste. Marie","province":"ON"},"geometry":{"type":"Point","coordinates":[-84.3697,46.5208]}},{"type":"Feature","properties":{"npri_id":"0000001071","comp_name":"Aluminerie de Bécancour inc.","faci_name":"Aluminerie de Bécancour inc.","city":"Bécancour","province":"QC"},"geometry":{"type":"Point","coordinates":[-72.3874,46.3829]}},{"type":"Feature","properties":{"npri_id":"0000001074","comp_name":"Pengrowth Energy Corporation","faci_name":"Olds Gas Plant","city":"Olds","province":"AB"},"geometry":{"type":"Point","coordinates":[-114.1345,51.7423]}},{"type":"Feature","properties":{"npri_id":"0000001077","comp_name":"Suncor Energy Oil and Gas Partnership","faci_name":"Ferrier Gas Plant","city":"Rocky Mountain House","province":"AB"},"geometry":{"type":"Point","coordinates":[-114.988,52.496]}},{"type":"Feature","properties":{"npri_id":"0000001080","comp_name":"Suncor Energy Oil and Gas Partnership","faci_name":"14-24-84-15-W6 Plant","city":"Fort St. John","province":"BC"},"geometry":{"type":"Point","coordinates":[-120.231,56.3009]}},{"type":"Feature","properties":{"npri_id":"0000001083","comp_name":"Produits American Biltrite Ltée","faci_name":"PRODUITS AMERICAN BILTRITE LTEE. - SHERBROOKE","city":"Sherbrooke","province":"QC"},"geometry":{"type":"Point","coordinates":[-71.8946,45.4052]}},{"type":"Feature","properties":{"npri_id":"0000001088","comp_name":"FRAM Group Canada Inc","faci_name":"FRAM Group Canada Inc","city":"Stratford","province":"ON"},"geometry":{"type":"Point","coordinates":[-80.9636,43.3678]}},{"type":"Feature","properties":{"npri_id":"0000001091","comp_name":"BP Canada Energy Company","faci_name":"Empress Gas Plant","city":"Medicine Hat","province":"AB"},"geometry":{"type":"Point","coordinates":[-110.025,50.6756]}},{"type":"Feature","properties":{"npri_id":"0000001093","comp_name":"Armstrong Manufacturing Inc.","faci_name":"2485 Haines Road","city":"Mississauga","province":"ON"},"geometry":{"type":"Point","coordinates":[-79.5931,43.5944]}},{"type":"Feature","properties":{"npri_id":"0000001096","comp_name":"Nexeo Solutions Canada Corporation","faci_name":"Mississauga - Distribution","city":"Mississauga","province":"ON"},"geometry":{"type":"Point","coordinates":[-79.6446,43.4988]}},{"type":"Feature","properties":{"npri_id":"0000001099","comp_name":"Hall-Chem Mfg Inc.","faci_name":"Boucherville","city":"Boucherville","province":"QC"},"geometry":{"type":"Point","coordinates":[-73.4379,45.5698]}},{"type":"Feature","properties":{"npri_id":"0000001105","comp_name":"Graphic Packaging International Canada Corportation","faci_name":"Graphic Packaging","city":"Brampton","province":"ON"},"geometry":{"type":"Point","coordinates":[-79.7343,43.6844]}},{"type":"Feature","properties":{"npri_id":"0000001106","comp_name":"AltaSteel Ltd.","faci_name":"AltaSteel","city":"Edmonton","province":"AB"},"geometry":{"type":"Point","coordinates":[-113.3875,53.5291]}},{"type":"Feature","properties":{"npri_id":"0000001109","comp_name":"Atotech Canada Ltd.","faci_name":"ATOTECH CANADA","city":"Burlington","province":"ON"},"geometry":{"type":"Point","coordinates":[-79.7815,43.3796]}},{"type":"Feature","properties":{"npri_id":"0000001111","comp_name":"UNIBOARD CANADA","faci_name":"Uniboard New Liskeard Inc.","city":"New Liskeard","province":"ON"},"geometry":{"type":"Point","coordinates":[-79.6574,47.4741]}},{"type":"Feature","properties":{"npri_id":"0000001112","comp_name":"Agropur Cooperative","faci_name":"Don Mills","city":"Toronto","province":"ON"},"geometry":{"type":"Point","coordinates":[-79.3264,43.7404]}},{"type":"Feature","properties":{"npri_id":"0000001113","comp_name":"NATREL INC","faci_name":null,"city":"LONDON","province":"ON"},"geometry":{"type":"Point","coordinates":[-81.2502,42.9794]}},{"type":"Feature","properties":{"npri_id":"0000001116","comp_name":"Avmor Ltee","faci_name":null,"city":"Montreal","province":"QC"},"geometry":{"type":"Point","coordinates":[-73.0,45.5013]}},{"type":"Feature","properties":{"npri_id":"0000001117","comp_name":"Société Laurentide","faci_name":"Laurentide peinture","city":"Shawinigan","province":"QC"},"geometry":{"type":"Point","coordinates":[-72.7258,46.5698]}},{"type":"Feature","properties":{"npri_id":"0000001119","comp_name":"BANNER PHARMACAPS CANADA LTD","faci_name":"BANNER PHARMACAPS","city":"Olds","province":"AB"},"geometry":{"type":"Point","coordinates":[-114.1,51.7833]}},{"type":"Feature","properties":{"npri_id":"0000001122","comp_name":"Ampacet Canada Company","faci_name":"Delta - old site","city":"Delta","province":"BC"},"geometry":{"type":"Point","coordinates":[-122.9402,49.1753]}},{"type":"Feature","properties":{"npri_id":"0000001125","comp_name":"Bell Helicopter Textron Canada Ltd.","faci_name":"BELL HELICOPTER TEXTRON CANADA LIMITÉE","city":"Mirabel","province":"QC"},"geometry":{"type":"Point","coordinates":[-73.9312,45.6878]}},{"type":"Feature","properties":{"npri_id":"0000001127","comp_name":"Island Copper Mine - BHP Minerals Canada Ltd.","faci_name":null,"city":"Port Hardy","province":"BC"},"geometry":{"type":"Point","coordinates":[-127.4983,50.6]}},{"type":"Feature","properties":{"npri_id":"0000001136","comp_name":"Bombardier Inc.","faci_name":"Usine St-Laurent","city":"Saint-Laurent","province":"QC"},"geometry":{"type":"Point","coordinates":[-73.7,45.5139]}},{"type":"Feature","properties":{"npri_id":"0000001139","comp_name":"Bombardier Inc.","faci_name":"Usine Dorval","city":"Dorval","province":"QC"},"geometry":{"type":"Point","coordinates":[-73.733,45.4744]}},{"type":"Feature","properties":{"npri_id":"0000001142","comp_name":"Brandon Forest Products Ltd.","faci_name":"Brandon Forest Products Ltd.","city":"Scarborough","province":"ON"},"geometry":{"type":"Point","coordinates":[-79.3056,43.8203]}},{"type":"Feature","properties":{"npri_id":"0000001143","comp_name":"Mines NAP Québec ltée","faci_name":"Mine Géant Dormant","city":"Amos","province":"QC"},"geometry":{"type":"Point","coordinates":[-77.9744,49.1314]}},{"type":"Feature","properties":{"npri_id":"0000001145","comp_name":"CAMECO","faci_name":"Port Hope Conversion Facility","city":"Port Hope","province":"ON"},"geometry":{"type":"Point","coordinates":[-78.2942,43.9422]}},{"type":"Feature","properties":{"npri_id":"0000001147","comp_name":"CAMECO","faci_name":"Rabbit Lake Operation","city":"Saskatoon","province":"SK"},"geometry":{"type":"Point","coordinates":[-103.7158,58.1938]}},{"type":"Feature","properties":{"npri_id":"0000001148","comp_name":"CAMECO","faci_name":"Key Lake Operation","city":"Saskatoon","province":"SK"},"geometry":{"type":"Point","coordinates":[-105.6788,57.2122]}},{"type":"Feature","properties":{"npri_id":"0000001149","comp_name":"CAMECO","faci_name":"McArthur River","city":"Saskatoon","province":"SK"},"geometry":{"type":"Point","coordinates":[-105.05,57.7622]}},{"type":"Feature","properties":{"npri_id":"0000001152","comp_name":"Canada Colors & Chemicals Ltd.","faci_name":"COLBORNE PLANT","city":"Colborne","province":"ON"},"geometry":{"type":"Point","coordinates":[-77.8916,44.023]}},